[
  {
    "id": "ChIJiQUTLxV5ZYYRV6yg3aVawOw",
    "name": ".",
    "address": "624 N Texas Ave, Mercedes, TX 78570, United States",
    "coords": {
      "lat": 26.1578078,
      "lng": -97.9137954
    },
    "rating": null
  },
  {
    "id": "ChIJxQVweouGO4YROwbVaKIBA9I",
    "name": "\"A\" BARBER SHOP",
    "address": "3633 Common St, Lake Charles, LA 70607, United States",
    "coords": {
      "lat": 30.1913534,
      "lng": -93.21379669999999
    },
    "rating": 4.6
  },
  {
    "id": "ChIJC57rX1tziIYRdIz0vo2K46A",
    "name": "\"Becker Barber Shop\"",
    "address": "Miguel Negrete 101, Ex, 25167 Saltillo, Coah., Mexico",
    "coords": {
      "lat": 25.4184324,
      "lng": -101.0197241
    },
    "rating": 5
  },
  {
    "id": "ChIJXd4Wfy8NiIYRbIYjvCZ4vIc",
    "name": "\"Carlos\" Barber Shop",
    "address": "C. Otilio González 3865, Loma Bonita, 25023 Saltillo, Coah., Mexico",
    "coords": {
      "lat": 25.4017778,
      "lng": -100.9696776
    },
    "rating": 4.8
  },
  {
    "id": "ChIJZ58j9ujDYoYR8e7Sl1AYdTc",
    "name": "\"El Calix\" Barber Shop",
    "address": "Av. de las Fuentes, Fuentes de Juárez, 67267 Cdad. Benito Juárez, N.L., Mexico",
    "coords": {
      "lat": 25.6435275,
      "lng": -100.1044054
    },
    "rating": 4.7
  },
  {
    "id": "ChIJeR8sub2bToYRAmRZvOzc-iE",
    "name": "\"Jess\" Beauty & Barber shop",
    "address": "4122 W Jefferson Blvd, Dallas, TX 75211, United States",
    "coords": {
      "lat": 32.7377792,
      "lng": -96.88819409999999
    },
    "rating": 5
  },
  {
    "id": "ChIJxxJXLEsjkIYRglKpMYFSJfw",
    "name": "“Mauris Barber”",
    "address": "Colón 144A, La Loma, 35190 La Loma, Dgo., Mexico",
    "coords": {
      "lat": 25.4622061,
      "lng": -103.6725212
    },
    "rating": 5
  },
  {
    "id": "ChIJeaaLpxOzj4YRofXmFF6qyMI",
    "name": "\"MOTA\" Barber Shop.",
    "address": "Jacarandas 220, Popular San Isidro, 27822 San Pedro, Coah., Mexico",
    "coords": {
      "lat": 25.7658539,
      "lng": -102.9953739
    },
    "rating": 5
  },
  {
    "id": "ChIJh2GKdwAZYYYRCEV-K3CNnAY",
    "name": "\"Pipe\" Barber shop & Tatoo Studio",
    "address": "Av. 5 405, Valles de Anáhuac, 88285 Nuevo Laredo, Tamps., Mexico",
    "coords": {
      "lat": 27.4913758,
      "lng": -99.59969009999999
    },
    "rating": 5
  },
  {
    "id": "ChIJz7vLP4KZb4YR25mqitAY9Kw",
    "name": "(BLESSEDUPBARBER)",
    "address": "315 N Arroyo Blvd, Los Fresnos, TX 78566, United States",
    "coords": {
      "lat": 26.0741262,
      "lng": -97.4764088
    },
    "rating": 4.8
  },
  {
    "id": "ChIJExWSudmVb4YRqysekvajkFE",
    "name": "#RealBarber",
    "address": "2120 E Price Rd Suite E, Brownsville, TX 78521, United States",
    "coords": {
      "lat": 25.9348323,
      "lng": -97.487
    },
    "rating": 4.8
  },
  {
    "id": "ChIJDapf0-VRAYcRKfClrLi3Uj4",
    "name": "#Views",
    "address": "1769 S Avondale St, Amarillo, TX 79106, United States",
    "coords": {
      "lat": 35.1951194,
      "lng": -101.8926966
    },
    "rating": 5
  },
  {
    "id": "ChIJv6xvlxX1i4YRKN7KBIsmcBY",
    "name": "•XXVI•",
    "address": "Calle Privada Porvenir 113, Cuatro Ciénegas de Carranza, 26 de Marzo, 27643 Cuatro Ciénegas de Carranza, Coah., Mexico",
    "coords": {
      "lat": 26.9806927,
      "lng": -102.0575283
    },
    "rating": null
  },
  {
    "id": "ChIJk1Fb_gbN-oYRfiOv-DM3C1I",
    "name": "~Eiberth#Barber#Shop#",
    "address": "307 S Oleander St, Pecos, TX 79772, United States",
    "coords": {
      "lat": 31.4227506,
      "lng": -103.5023062
    },
    "rating": null
  },
  {
    "id": "ChIJdePt-rnN-oYRzxhFrcehrfM",
    "name": "~Eiberth#Barber#Shop#",
    "address": "500 E 3rd St, Pecos, TX 79772, United States",
    "coords": {
      "lat": 31.4267037,
      "lng": -103.4910792
    },
    "rating": null
  },
  {
    "id": "ChIJ2Xo_8jJ_8IYR_z0t_S_Hwxs",
    "name": "✂️💈Ez-Fadez💈✂️",
    "address": "1400 W Dickinson Blvd, Fort Stockton, TX 79735, United States",
    "coords": {
      "lat": 30.894233,
      "lng": -102.89366
    },
    "rating": null
  },
  {
    "id": "ChIJm4v203493oYRM2szS09vcuc",
    "name": "⭕_fficial1 Barber Parlor 💈",
    "address": "1900 S Telshor Blvd Suite B, Las Cruces, NM 88011, United States",
    "coords": {
      "lat": 32.2985423,
      "lng": -106.736848
    },
    "rating": 5
  },
  {
    "id": "ChIJPVCqVACbToYRmvlhO58DJcc",
    "name": "💈 Barber Studio 💈",
    "address": "2916 Rolinda Dr, Dallas, TX 75211, United States",
    "coords": {
      "lat": 32.7211042,
      "lng": -96.8695315
    },
    "rating": 5
  },
  {
    "id": "ChIJ6yjnKEo_Q4YRLeSBhniWS0M",
    "name": "💈 Come and Fade It Barbershop 💈",
    "address": "616 St Paul St, Gonzales, TX 78629, United States",
    "coords": {
      "lat": 29.5033773,
      "lng": -97.4521561
    },
    "rating": 4.7
  },
  {
    "id": "ChIJH3Ha--ovTIYR4hWnWC7qEP8",
    "name": "💈💈MOST. RELIABLE. BARBER 💈 💈FIABLE BARBERO 💈",
    "address": "817 S Mill St Suite #107, Lewisville, TX 75057, United States",
    "coords": {
      "lat": 33.0382199,
      "lng": -96.99357309999999
    },
    "rating": 5
  },
  {
    "id": "ChIJafcfYFxd6oYRa_kyZqIUPpY",
    "name": "💈Barbería Balder💈 (Suc Flores Magón)",
    "address": "C. Mariano Jimenez 4604, Pacífico, 31030 Chihuahua, Chih., Mexico",
    "coords": {
      "lat": 28.6170145,
      "lng": -106.0805684
    },
    "rating": 4.6
  },
  {
    "id": "ChIJZS21gnEhYYYRuLroUq_u5SI",
    "name": "💈Diamond Cuts Barbershop💈",
    "address": "519 Clark Blvd, Laredo, TX 78040, United States",
    "coords": {
      "lat": 27.5164398,
      "lng": -99.4909196
    },
    "rating": 4.7
  },
  {
    "id": "ChIJR0gX534ZYYYRlxwgcVQiW5c",
    "name": "💈DRAGONS BARBER SHOP💈",
    "address": "Blvd. Universidad 9215, 88283 Nuevo Laredo, Tamps., Mexico",
    "coords": {
      "lat": 27.4646281,
      "lng": -99.58473479999999
    },
    "rating": 5
  },
  {
    "id": "ChIJCT4geZzBQIYRxcmROptnKMo",
    "name": "007 Barbershop",
    "address": "5801 Memorial Dr Suite B, Houston, TX 77007, United States",
    "coords": {
      "lat": 29.76093669999999,
      "lng": -95.4204242
    },
    "rating": 4.9
  },
  {
    "id": "ChIJPf_Jf-txIocRWxCCG9DBwDc",
    "name": "0220 Barber Studio",
    "address": "10200 Corrales Rd Suite 105, Albuquerque, NM 87114, United States",
    "coords": {
      "lat": 35.2033416,
      "lng": -106.6465953
    },
    "rating": 5
  },
  {
    "id": "ChIJ7y8daWShZYYRLmgPPDbY1sA",
    "name": "1 Of 1 Barbershop On Trenton",
    "address": "2109 W Trenton Rd, Edinburg, TX 78539, United States",
    "coords": {
      "lat": 26.2649307,
      "lng": -98.1914978
    },
    "rating": 4.8
  },
  {
    "id": "ChIJN90YOuf1XIYRSE4RqliLY9E",
    "name": "1 of One Barber Shop North",
    "address": "7338 San Pedro Ave, San Antonio, TX 78216, United States",
    "coords": {
      "lat": 29.516442,
      "lng": -98.498525
    },
    "rating": 4.9
  },
  {
    "id": "ChIJA-JJunT3XIYRj8PGRyt12-M",
    "name": "1 of One Barber Shop Southton",
    "address": "9503 Southton Rd, San Antonio, TX 78223, United States",
    "coords": {
      "lat": 29.3251491,
      "lng": -98.4334377
    },
    "rating": 4.5
  },
  {
    "id": "ChIJO1j3WbppZIYRb7riM59tyRE",
    "name": "1 of One Studio",
    "address": "301 FM 3167 Ste D, Rio Grande City, TX 78582, United States",
    "coords": {
      "lat": 26.3967284,
      "lng": -98.85405949999999
    },
    "rating": 5
  },
  {
    "id": "ChIJi9hw8_xxTIYRXS5K8oV3c-Q",
    "name": "1 Stop Barber Shop",
    "address": "974 W Van Alstyne Pkwy, Van Alstyne, TX 75495, United States",
    "coords": {
      "lat": 33.4228188,
      "lng": -96.5872705
    },
    "rating": 4.5
  },
  {
    "id": "ChIJYbvBaZbLSYYRjSlbCKtxG7A",
    "name": "100 Grand Barber Shop & Clothing",
    "address": "11876 State Hwy 64 Suite 118-124, Tyler, TX 75704, United States",
    "coords": {
      "lat": 32.3584006,
      "lng": -95.3636758
    },
    "rating": 4.9
  },
  {
    "id": "ChIJfWFJGJODRoYRMktGyQvRh9s",
    "name": "101 Barber Company",
    "address": "603 S Sims Ave Ste 213, Bryan, TX 77803, United States",
    "coords": {
      "lat": 30.6688448,
      "lng": -96.3767552
    },
    "rating": 5
  },
  {
    "id": "ChIJP3TIsX1oXIYRtDFrY9rmIVY",
    "name": "1010 Classic Barber Shop",
    "address": "1010 S Flores St #120, San Antonio, TX 78204, United States",
    "coords": {
      "lat": 29.4132441,
      "lng": -98.49974619999999
    },
    "rating": 4.9
  },
  {
    "id": "ChIJDwMAEACvZYYRjms-jW9frFk",
    "name": "107 barber shop 💈",
    "address": "6910 W Mile 7 Rd, Mission, TX 78574, United States",
    "coords": {
      "lat": 26.3270424,
      "lng": -98.3859526
    },
    "rating": 5
  },
  {
    "id": "ChIJp12-WbAxUIYR7egaPTRTUH8",
    "name": "11|11 Destiny Lucas Salon",
    "address": "501 N 2nd St, Hico, TX 76457, United States",
    "coords": {
      "lat": 31.9840031,
      "lng": -98.034554
    },
    "rating": 5
  },
  {
    "id": "ChIJ_3XaXI23TYYRQpy2eUOSDFU",
    "name": "1173 Styling Station",
    "address": "117 W McCart St, Krum, TX 76249, United States",
    "coords": {
      "lat": 33.2611384,
      "lng": -97.2375023
    },
    "rating": 4.2
  },
  {
    "id": "ChIJQ6tAiUESrIcRF1WqO448fzk",
    "name": "118 Cuts. ( Hairloom's)",
    "address": "118 S College St, New Cordell, OK 73632, United States",
    "coords": {
      "lat": 35.2904423,
      "lng": -98.9904363
    },
    "rating": 5
  },
  {
    "id": "ChIJSY36OaL5yYcRf5wQOCfiKXw",
    "name": "1213",
    "address": "1213 Park Hill Rd, Tahlequah, OK 74464, United States",
    "coords": {
      "lat": 35.9000549,
      "lng": -94.9740295
    },
    "rating": 5
  },
  {
    "id": "ChIJb1eset9Nj4YRy3rW0cqh7aI",
    "name": "18's Barber Shop",
    "address": "Hda. San Lorenzo 103, Col Esmeralda, 27980 Parras de la Fuente, Coah., Mexico",
    "coords": {
      "lat": 25.43366,
      "lng": -102.1629451
    },
    "rating": 4.7
  },
  {
    "id": "ChIJ5Xz_t5r-S4YRWm1bL4FFpkk",
    "name": "1885 Barbershop & Shave Parlor",
    "address": "126 E Main St, Royse City, TX 75189, United States",
    "coords": {
      "lat": 32.975425,
      "lng": -96.3318824
    },
    "rating": 4.7
  },
  {
    "id": "ChIJd5D-wM_9tIcR4amLVq0PXE0",
    "name": "1907 Barber Collective",
    "address": "1617 E Electric Ave Suite C, McAlester, OK 74501, United States",
    "coords": {
      "lat": 34.9431867,
      "lng": -95.7401999
    },
    "rating": 4.7
  },
  {
    "id": "ChIJ2zRPdaYV64YRJcpehN8UipA",
    "name": "1910 Barberia",
    "address": "C. 7 Ote. 9001, Oriente 1, 33000 Delicias, Chih., Mexico",
    "coords": {
      "lat": 28.1913841,
      "lng": -105.4594415
    },
    "rating": 4.7
  },
  {
    "id": "ChIJUQFVCkLNPoYRf-kCp9i8Dc4",
    "name": "1923 Barber Parlor",
    "address": "250 N 11th St, Beaumont, TX 77702, United States",
    "coords": {
      "lat": 30.0834421,
      "lng": -94.1295876
    },
    "rating": 4.8
  },
  {
    "id": "ChIJN7guyiBnQoYRiRIDf3bPAfU",
    "name": "19th Hole Barber & Style Shop Men & Women Haircuts",
    "address": "Victoria, TX 77901, United States",
    "coords": {
      "lat": 28.8201312,
      "lng": -96.99040169999999
    },
    "rating": 5
  },
  {
    "id": "ChIJO-uwsaCzToYRgGYzVSBbLqY",
    "name": "1st class fades barbershop",
    "address": "7200 FM741, Forney, TX 75126, United States",
    "coords": {
      "lat": 32.7030045,
      "lng": -96.447096
    },
    "rating": 5
  },
  {
    "id": "ChIJh44oZwBb6oYRuPFKYVHEbZ0",
    "name": "2 Ases Barber Shop",
    "address": "Blvd. Jose Fuentes Mares 1497, Veteranos, 31074 Chihuahua, Chih., Mexico",
    "coords": {
      "lat": 28.6078123,
      "lng": -106.0021886
    },
    "rating": 5
  },
  {
    "id": "ChIJC9dARPaXQIYR1pbbOBrKr9k",
    "name": "2 Blendz Barber Shop",
    "address": "2120 Allen Genoa Rd, Houston, TX 77017, United States",
    "coords": {
      "lat": 29.6794266,
      "lng": -95.22748829999999
    },
    "rating": 4.8
  },
  {
    "id": "ChIJjcHeqUtbGIcR4ChjLstGv14",
    "name": "2 Faded Barbershop",
    "address": "1189 Parkway Dr E1, Santa Fe, NM 87507, United States",
    "coords": {
      "lat": 35.65840439999999,
      "lng": -105.9986281
    },
    "rating": 5
  },
  {
    "id": "ChIJwa-v_2T1aIYRYSWwjZlxACo",
    "name": "2 Relentless Barbershop",
    "address": "5417 S Staples St Suite 107, Corpus Christi, TX 78411, United States",
    "coords": {
      "lat": 27.7025584,
      "lng": -97.37399280000001
    },
    "rating": 4.6
  },
  {
    "id": "ChIJQXQoKCtmrYcRrowBl9kmoEA",
    "name": "202 Mane",
    "address": "202 W Main St, Marlow, OK 73055, United States",
    "coords": {
      "lat": 34.6474743,
      "lng": -97.9565533
    },
    "rating": 4.8
  },
  {
    "id": "ChIJJ3jhmRJt_oYR085K-IbLaCA",
    "name": "2151 Hair LOUNGE",
    "address": "79414, 2151 50th St, Lubbock, TX 79412, United States",
    "coords": {
      "lat": 33.5483074,
      "lng": -101.8646006
    },
    "rating": 4.8
  },
  {
    "id": "ChIJf_cTdrqVb4YRT43dIR8OhkM",
    "name": "23 BARBER SHOP",
    "address": "2494 Boca Chica Blvd, Brownsville, TX 78521, United States",
    "coords": {
      "lat": 25.9212297,
      "lng": -97.4831687
    },
    "rating": 4.7
  },
  {
    "id": "ChIJNZhKGBzXG4gRUwgizLGgFQw",
    "name": "231 Cutz",
    "address": "2529 Tar Heel Dr, Fort Worth, TX 76123, United States",
    "coords": {
      "lat": 32.6191383,
      "lng": -97.3590361
    },
    "rating": 4.7
  },
  {
    "id": "ChIJG4_Ip14HR4YRkahsdDchci8",
    "name": "24K barbershop",
    "address": "3011 SH 30, Huntsville, TX 77340, United States",
    "coords": {
      "lat": 30.71729729999999,
      "lng": -95.5734195
    },
    "rating": 5
  },
  {
    "id": "ChIJ2_zPytVD6oYRZaWoBWmAAR0",
    "name": "24K Barbershop",
    "address": "Av. Prol. Teófilo Borunda 11810-Local 45, Plaza Travessia, 31207 Chihuahua, Chih., Mexico",
    "coords": {
      "lat": 28.5981416,
      "lng": -106.1277943
    },
    "rating": 4.9
  },
  {
    "id": "ChIJzfrGiZkfYYYR9dSQCSsjO1E",
    "name": "2Karnales Barber Shop",
    "address": "Artículo 9 904, Constitucional, 88177 Nuevo Laredo, Tamps., Mexico",
    "coords": {
      "lat": 27.5075458,
      "lng": -99.5767111
    },
    "rating": 5
  },
  {
    "id": "ChIJG554Yw_TNoYReVmeGK-ehRM",
    "name": "2Kreative Kutz",
    "address": "New Horizon Apartments, 4345 Illinois Ave Apt 95, Shreveport, LA 71109, United States",
    "coords": {
      "lat": 32.4596779,
      "lng": -93.8115749
    },
    "rating": null
  },
  {
    "id": "ChIJf3YoSSEfsocRHWbtB-hUdmE",
    "name": "2nd Street Barber Shop",
    "address": "2424 E 2nd St, Edmond, OK 73034, United States",
    "coords": {
      "lat": 35.6518402,
      "lng": -97.44898219999999
    },
    "rating": 4.6
  },
  {
    "id": "ChIJ8zU1Mn_Vi4YRXpprxvLYqIA",
    "name": "2R barber shop",
    "address": "25870, Héroes del 47, 25870 Castaños, Coah., Mexico",
    "coords": {
      "lat": 26.7801177,
      "lng": -101.4201856
    },
    "rating": 5
  },
  {
    "id": "ChIJUVUFegdib4YRodJuO_e8SzM",
    "name": "2Rey Barber Shop",
    "address": "345 W Hidalgo Ave, Raymondville, TX 78580, United States",
    "coords": {
      "lat": 26.4817536,
      "lng": -97.7846307
    },
    "rating": 4.3
  },
  {
    "id": "ChIJn0PgfIzNRIYRXDtBOlYW3Ug",
    "name": "3 KINGS Barbershop",
    "address": "3220 Feathergrass Ct #124, Austin, TX 78758, United States",
    "coords": {
      "lat": 30.39555339999999,
      "lng": -97.7275147
    },
    "rating": 4.5
  },
  {
    "id": "ChIJSxpiaE-pXIYRt9muAjh5Nqk",
    "name": "3 Kings Barbershop (3KB)",
    "address": "210 N Edward Gary St #106, San Marcos, TX 78666, United States",
    "coords": {
      "lat": 29.883984,
      "lng": -97.9387103
    },
    "rating": 4.8
  },
  {
    "id": "ChIJs7I6MwtLW4YR4cQEm5cDVjA",
    "name": "3 Kings Barbershop (3KB)",
    "address": "2901 S Capital of Texas Hwy F05, Austin, TX 78746, United States",
    "coords": {
      "lat": 30.2570061,
      "lng": -97.80772879999999
    },
    "rating": 4.9
  },
  {
    "id": "ChIJvSzkQx7PQIYRF6aJLGJvTkc",
    "name": "3 Towers Barber Shop",
    "address": "14207 Tomball Pkwy, Houston, TX 77086, United States",
    "coords": {
      "lat": 29.923874,
      "lng": -95.500481
    },
    "rating": 5
  },
  {
    "id": "ChIJ28RbB2ghU4YRLcf5QxMeHfI",
    "name": "3's Co. Barbershop",
    "address": "3105 Carter Ave, Wichita Falls, TX 76308, United States",
    "coords": {
      "lat": 33.8722492,
      "lng": -98.533014
    },
    "rating": 4.9
  },
  {
    "id": "ChIJX4Mewg90sYcRMm-OVWJ6jUY",
    "name": "31 Rubies Salon",
    "address": "911 N Sadler Rd, Perkins, OK 74059, United States",
    "coords": {
      "lat": 35.9835772,
      "lng": -97.0165629
    },
    "rating": 4.6
  },
  {
    "id": "ChIJrVa1z8Vt_oYRjBposY2OPG4",
    "name": "34th Street BarberShop",
    "address": "2851 34th St, Lubbock, TX 79410, United States",
    "coords": {
      "lat": 33.5629484,
      "lng": -101.8787423
    },
    "rating": 4.9
  },
  {
    "id": "ChIJ_ZU9Y2AbsocRLwHzMnSgowo",
    "name": "36th Street Barbershop",
    "address": "3705 N Meridian Ave, Oklahoma City, OK 73112, United States",
    "coords": {
      "lat": 35.5082622,
      "lng": -97.6015202
    },
    "rating": 4.9
  },
  {
    "id": "ChIJVwwaa_nI-4YR_31mV4is-L0",
    "name": "385 Barber Shop",
    "address": "4927 Andrews Hwy, Odessa, TX 79762, United States",
    "coords": {
      "lat": 31.8907516,
      "lng": -102.3877998
    },
    "rating": 4.6
  },
  {
    "id": "ChIJafZ-C2ugGIcRPCnvxxOmvfg",
    "name": "3D Kutz Barber Shop",
    "address": "1331 Juan Tabo Blvd NE, Albuquerque, NM 87112, United States",
    "coords": {
      "lat": 35.0956153,
      "lng": -106.5159512
    },
    "rating": 4.6
  },
  {
    "id": "ChIJzY9jgfszH4cRN2NFAVZeino",
    "name": "3D Kutz Barbershop Estancia",
    "address": "311 5th St, Estancia, NM 87016, United States",
    "coords": {
      "lat": 34.75882,
      "lng": -106.0556349
    },
    "rating": 4.4
  },
  {
    "id": "ChIJT6XXGdDhtYcRCTuUixf9ftE",
    "name": "3Kingz Barbershop",
    "address": "612 N York St Unit A, Muskogee, OK 74403, United States",
    "coords": {
      "lat": 35.74555230000001,
      "lng": -95.34006629999999
    },
    "rating": 4.7
  },
  {
    "id": "ChIJJY8KB8_zZ4YR-PtXYeKPhGY",
    "name": "3rd coast cutz",
    "address": "204 Houston St, George West, TX 78022, United States",
    "coords": {
      "lat": 28.3351354,
      "lng": -98.11379989999999
    },
    "rating": 5
  },
  {
    "id": "ChIJL0vFUQBZXIYRUPwMpBKX6Aw",
    "name": "3rd Generation Barber Shop",
    "address": "2118 Commercial Ave, San Antonio, TX 78221, United States",
    "coords": {
      "lat": 29.3558477,
      "lng": -98.51589729999999
    },
    "rating": 5
  },
  {
    "id": "ChIJl5_Uxe2FRoYRKd0S-U33M3g",
    "name": "4.0 Cuts Barber Salon - North",
    "address": "425 Northpoint Crossing Suite 100, College Station, TX 77840, United States",
    "coords": {
      "lat": 30.6278515,
      "lng": -96.335687
    },
    "rating": 4.6
  },
  {
    "id": "ChIJn-aPgryDRoYR0TDtADJxb0Y",
    "name": "4.0 Cuts Barber Salon - South",
    "address": "110 Navarro Dr #300, College Station, TX 77845, United States",
    "coords": {
      "lat": 30.579013,
      "lng": -96.31844459999999
    },
    "rating": 4.6
  },
  {
    "id": "ChIJ428lC4aDRoYRCubZJCgFOK8",
    "name": "4.0 Cuts Barber Salon - Texas A&M Campus",
    "address": "275 Joe Routt Blvd Ste. 1303, College Station, TX 77840, United States",
    "coords": {
      "lat": 30.6123103,
      "lng": -96.3413076
    },
    "rating": 4.8
  },
  {
    "id": "ChIJEahxeHy7PoYRkQbOffof55w",
    "name": "409 Barber Studio",
    "address": "2300 Memorial Blvd Suite B, Port Arthur, TX 77640, United States",
    "coords": {
      "lat": 29.9030372,
      "lng": -93.93371959999999
    },
    "rating": 4.8
  },
  {
    "id": "ChIJF6EfxB-3PoYRmqmjwBtXwNo",
    "name": "409 Barbershop",
    "address": "3104 Nederland Ave, Nederland, TX 77627, United States",
    "coords": {
      "lat": 29.9610792,
      "lng": -94.0024912
    },
    "rating": 4.7
  },
  {
    "id": "ChIJT6irKB7J-4YRdizJ4EcMN2k",
    "name": "42nd Street Barber Shop",
    "address": "1102 E 42nd St, Odessa, TX 79762, United States",
    "coords": {
      "lat": 31.8846513,
      "lng": -102.3729022
    },
    "rating": 3.7
  },
  {
    "id": "ChIJee4kbUXJ-4YRwTn1GzPAn0U",
    "name": "432 Barbershop",
    "address": "1415 N County Rd W, Odessa, TX 79763, United States",
    "coords": {
      "lat": 31.8495701,
      "lng": -102.3924149
    },
    "rating": 4.3
  },
  {
    "id": "ChIJK9bJnE9ZSoYRkGy5RTNBwG0",
    "name": "4K Studios Barber Salon",
    "address": "740 24th St SE, Paris, TX 75460, United States",
    "coords": {
      "lat": 33.65436,
      "lng": -95.5313497
    },
    "rating": 5
  },
  {
    "id": "ChIJVSZjkgFzTIYRi3bgiOaGgU4",
    "name": "4th & Main Barber Co.",
    "address": "118 W 4th St, Anna, TX 75409, United States",
    "coords": {
      "lat": 33.349293,
      "lng": -96.549951
    },
    "rating": 4.9
  },
  {
    "id": "ChIJzdMcbk61IYcRHzQEKxnqXjU",
    "name": "4th Generation Barber Shop",
    "address": "110 Willow St, Socorro, NM 87801, United States",
    "coords": {
      "lat": 34.0748453,
      "lng": -106.8914561
    },
    "rating": 3.9
  },
  {
    "id": "ChIJv_bJX4YN_oYRv_iHwEr58jI",
    "name": "4th st Barbershop",
    "address": "417 Frankford Ave #413, Lubbock, TX 79416, United States",
    "coords": {
      "lat": 33.5913877,
      "lng": -101.9383138
    },
    "rating": 5
  },
  {
    "id": "ChIJiePosLJpsocR-4eUca7F5Tk",
    "name": "4theluvoffadez Barbershop",
    "address": "1953 W Lindsey St, Norman, OK 73069, United States",
    "coords": {
      "lat": 35.2046011,
      "lng": -97.4696001
    },
    "rating": 4.4
  },
  {
    "id": "ChIJM219Lc4hU4YRnhQD-WtohLM",
    "name": "5 O'Clock Barber Shop",
    "address": "913 Indiana Ave, Wichita Falls, TX 76301, United States",
    "coords": {
      "lat": 33.9112655,
      "lng": -98.4896114
    },
    "rating": 4.8
  },
  {
    "id": "ChIJ2fCZqYZzTIYR9slDsy2xWiA",
    "name": "5 Star Barber Studio",
    "address": "805 W White St Suite 200, Anna, TX 75409, United States",
    "coords": {
      "lat": 33.3439532,
      "lng": -96.5584683
    },
    "rating": 4.8
  },
  {
    "id": "ChIJiy5eCAVt_oYRIiWGU48YY4I",
    "name": "5 Star Cuts & Styles Barbershop",
    "address": "2107 50th St, Lubbock, TX 79412, United States",
    "coords": {
      "lat": 33.5481923,
      "lng": -101.8623847
    },
    "rating": 4.4
  },
  {
    "id": "ChIJdYLREJKRb4YRi3eENFPboQU",
    "name": "5 Star Fadez Barbershop",
    "address": "1280 W Ruben M Torres Sr Blvd Suite A, Brownsville, TX 78520, United States",
    "coords": {
      "lat": 25.9408465,
      "lng": -97.5369307
    },
    "rating": 5
  },
  {
    "id": "ChIJU1yqQwDDQIYRkt61lbkwyIE",
    "name": "5 Stars Barbershop",
    "address": "9780 Bissonnet St, Houston, TX 77036, United States",
    "coords": {
      "lat": 29.6762817,
      "lng": -95.5496108
    },
    "rating": 4.9
  },
  {
    "id": "ChIJv1ONKAytZYYRraxjwGnKm8o",
    "name": "5 STARS Barbershop",
    "address": "36701 Calle Marisol, Mission, TX 78574, United States",
    "coords": {
      "lat": 26.3297797,
      "lng": -98.4097558
    },
    "rating": 4.2
  },
  {
    "id": "ChIJMfcnlPgtM4YRuYPwNyw9F5U",
    "name": "501 Barbershop",
    "address": "3131 Airport Rd suite g, Pearcy, AR 71964, United States",
    "coords": {
      "lat": 34.44400359999999,
      "lng": -93.1972558
    },
    "rating": 5
  },
  {
    "id": "ChIJFzEC9DKCToYRncbm_X4HQfw",
    "name": "504 Barber Shop",
    "address": "3880 Irving Mall, Irving, TX 75062, United States",
    "coords": {
      "lat": 32.8402882,
      "lng": -96.99540449999999
    },
    "rating": 3
  },
  {
    "id": "ChIJLVGU84Hbj4YRe3tXekhL7GU",
    "name": "508 ALOMAR'S BARBER SHOP",
    "address": "Calz Saltillo 400 #176 B, Residencial Campestre la Rosita, 27268 Torreón, Coah., Mexico",
    "coords": {
      "lat": 25.520776,
      "lng": -103.4061887
    },
    "rating": 4.6
  },
  {
    "id": "ChIJAwBpOMSzRIYRoWh1dHOc04o",
    "name": "512 BARBERSHOP (INSIDE SUPREME CUTS)",
    "address": "6104 S 1st St, Austin, TX 78745, United States",
    "coords": {
      "lat": 30.2026613,
      "lng": -97.7848727
    },
    "rating": 5
  },
  {
    "id": "ChIJQyHil97N-oYRvfT44-oD_Q0",
    "name": "5AKUTZ Barber Shop & Salon",
    "address": "404 N Cedar St, Pecos, TX 79772, United States",
    "coords": {
      "lat": 31.4324097,
      "lng": -103.4971322
    },
    "rating": 4.5
  },
  {
    "id": "ChIJZUZELqZDQIYR-ewyc7QkVLI",
    "name": "5D Meta Barber",
    "address": "134 S Parking Pl, Lake Jackson, TX 77566, United States",
    "coords": {
      "lat": 29.0400532,
      "lng": -95.449377
    },
    "rating": 5
  },
  {
    "id": "ChIJTfgt50T9tIcRl8hJAxxIzhw",
    "name": "5S Barbershop",
    "address": "502 E Chickasaw Ave Suite B, McAlester, OK 74501, United States",
    "coords": {
      "lat": 34.9292324,
      "lng": -95.7633784
    },
    "rating": 5
  },
  {
    "id": "ChIJhZ_sTSyKXIYRoBRxdj0C_eI",
    "name": "5th Ave. BARBER SHOP",
    "address": "San Antonio, TX 78232, United States",
    "coords": {
      "lat": 29.6041559,
      "lng": -98.443849
    },
    "rating": 5
  },
  {
    "id": "ChIJ62tFsy2KXIYRgYmjmBisb1c",
    "name": "5th.Avenue barbershop",
    "address": "17038 Redland Rd, San Antonio, TX 78247, United States",
    "coords": {
      "lat": 29.5948321,
      "lng": -98.4349912
    },
    "rating": 4.6
  },
  {
    "id": "ChIJ6Qhmyy5_ToYRkDfrzN3VOw8",
    "name": "601 Barbershop and Salon",
    "address": "236 W Bedford Euless Rd #4043, Hurst, TX 76053, United States",
    "coords": {
      "lat": 32.8343181,
      "lng": -97.17198069999999
    },
    "rating": 4.1
  },
  {
    "id": "ChIJzYG1cw65y4cRsAK3NiYlTRY",
    "name": "606 Barber Parlour",
    "address": "606 Fayetteville Ave, Alma, AR 72921, United States",
    "coords": {
      "lat": 35.4786512,
      "lng": -94.22154200000001
    },
    "rating": 4.8
  },
  {
    "id": "ChIJj1KKF81bGIcRF8oPzmmVxVA",
    "name": "608 Southside",
    "address": "4001 Office Ct Dr #608, Santa Fe, NM 87507, United States",
    "coords": {
      "lat": 35.6331419,
      "lng": -106.0147691
    },
    "rating": 4.9
  },
  {
    "id": "ChIJwcAEhOhfXIYRJ-3GUsCC0jg",
    "name": "619 Barber Shop",
    "address": "3333 West Ave suit 13, San Antonio, TX 78213, United States",
    "coords": {
      "lat": 29.4925614,
      "lng": -98.5265312
    },
    "rating": 4.8
  },
  {
    "id": "ChIJKdl6Nk_Zs4cRvt_pzaKFgmg",
    "name": "66 Snip N Clips",
    "address": "920 W 15th St ste b, Chandler, OK 74834, United States",
    "coords": {
      "lat": 35.6957553,
      "lng": -96.8916649
    },
    "rating": 4.9
  },
  {
    "id": "ChIJvVxYxflB6oYRdnJ8h9Ag8DE",
    "name": "664 Barbería",
    "address": "César Baeza, Av. Fedor Dostoyevski 14701, Chihuahua 2000 III Etapa, Chihuahua 2000, 31136 Chihuahua, Chih., Mexico",
    "coords": {
      "lat": 28.7274304,
      "lng": -106.1180866
    },
    "rating": 4.8
  },
  {
    "id": "ChIJDxczPoS1RIYREEjTwwv4tzs",
    "name": "737 Barbershop",
    "address": "403 E Ben White Blvd Unit C, Austin, TX 78704, United States",
    "coords": {
      "lat": 30.2199164,
      "lng": -97.76011199999999
    },
    "rating": 5
  },
  {
    "id": "ChIJ-emsYFKDb4YR6iz0Qhg_2DM",
    "name": "7n7 Barber LLC (BabyEx777)",
    "address": "804 Dixieland Rd Ste H, Harlingen, TX 78552, United States",
    "coords": {
      "lat": 26.1844739,
      "lng": -97.72229759999999
    },
    "rating": 5
  },
  {
    "id": "ChIJaTz_uMbr9YYRd7ZKArXdmKc",
    "name": "7th Street Barbershop",
    "address": "507 E 7th St, Del Rio, TX 78840, United States",
    "coords": {
      "lat": 29.3722713,
      "lng": -100.900126
    },
    "rating": 4.6
  },
  {
    "id": "ChIJP1qMyAVH54YRiSElasJJF9I",
    "name": "8 Axé Barbershop",
    "address": "2601 N Zaragoza Rd suite 203B, El Paso, TX 79938, United States",
    "coords": {
      "lat": 31.7793469,
      "lng": -106.2497239
    },
    "rating": 4.9
  },
  {
    "id": "ChIJAbDxI8VPAYcRjS8CUtnO-C0",
    "name": "806 Barber & Beauty",
    "address": "3350 Olsen Blvd #800, Amarillo, TX 79109, United States",
    "coords": {
      "lat": 35.1849663,
      "lng": -101.8769309
    },
    "rating": 4.8
  },
  {
    "id": "ChIJnUavzznr_YYRhNYSWYmRNpE",
    "name": "806 Barbershop",
    "address": "503 Ave G, Levelland, TX 79336, United States",
    "coords": {
      "lat": 33.588099,
      "lng": -102.3764506
    },
    "rating": 4.5
  },
  {
    "id": "ChIJZV_GdT9PAYcRlukuFKKFyDg",
    "name": "828 Barbershop",
    "address": "3600 S Western St Ste C, Amarillo, TX 79109, United States",
    "coords": {
      "lat": 35.1735972,
      "lng": -101.8844312
    },
    "rating": 5
  },
  {
    "id": "ChIJ53tMKHZy_oYRVqdS-S1ivPI",
    "name": "82nd Street Barbershop",
    "address": "3410 82nd St, Lubbock, TX 79423, United States",
    "coords": {
      "lat": 33.5201961,
      "lng": -101.8889088
    },
    "rating": 4.6
  },
  {
    "id": "ChIJT6ubw1iNX4YRyrm2nKt_0Zw",
    "name": "830Blendz",
    "address": "2322 N Veterans Blvd, Eagle Pass, TX 78852, United States",
    "coords": {
      "lat": 28.7266083,
      "lng": -100.4761683
    },
    "rating": 5
  },
  {
    "id": "ChIJ-62nzATr9YYRjuUgeIkBJy8",
    "name": "830Fadez",
    "address": "710 E 13th St, Del Rio, TX 78840, United States",
    "coords": {
      "lat": 29.3790481,
      "lng": -100.9002931
    },
    "rating": null
  },
  {
    "id": "ChIJN4DG2h9YXIYRWbjrqWmaG_M",
    "name": "878 barber shop",
    "address": "1108 Pleasanton Rd, San Antonio, TX 78214, United States",
    "coords": {
      "lat": 29.3731604,
      "lng": -98.50413809999999
    },
    "rating": 4.9
  },
  {
    "id": "ChIJrap6IJ1JXIYRtxHablp2Txo",
    "name": "888 CLASSICS BARBERSHOP",
    "address": "15033 Main St, Lytle, TX 78052, United States",
    "coords": {
      "lat": 29.2339877,
      "lng": -98.79489559999999
    },
    "rating": 4.1
  },
  {
    "id": "ChIJtYMELSTaXYYRTKb-i0O5Hu8",
    "name": "888 Classics Barbershop Hair & Nails Spa",
    "address": "202 N Oak St # 4, Pearsall, TX 78061, United States",
    "coords": {
      "lat": 28.89313409999999,
      "lng": -99.0947194
    },
    "rating": 4.1
  },
  {
    "id": "ChIJW6PPQyrhXYYRT2Q_IuReFyc",
    "name": "888 classics barbershop-Cotulla",
    "address": "116 N Main St, Cotulla, TX 78014, United States",
    "coords": {
      "lat": 28.4364243,
      "lng": -99.234887
    },
    "rating": 3.3
  },
  {
    "id": "ChIJrzpX0iLLwYYRRBCcXhOaB-Y",
    "name": "9's barbershop",
    "address": "Centro, Juan Aldama 1001, Zona Centro, 31500 Cuauhtémoc, Chih., Mexico",
    "coords": {
      "lat": 28.4016244,
      "lng": -106.8680995
    },
    "rating": 4.7
  },
  {
    "id": "ChIJQxh7UwDJSYYRHMtx9i8tPrc",
    "name": "903cutz",
    "address": "1211 W Gentry Pkwy, Tyler, TX 75702, United States",
    "coords": {
      "lat": 32.3600605,
      "lng": -95.31436699999999
    },
    "rating": 5
  },
  {
    "id": "ChIJIyitYOaTtocR1Z3j_qnpCHY",
    "name": "918 Barber Lounge",
    "address": "Location in: Fountain Plaza, 4815 S Sheridan Rd # 103A, Tulsa, OK 74145, United States",
    "coords": {
      "lat": 36.0935227,
      "lng": -95.903989
    },
    "rating": 4.8
  },
  {
    "id": "ChIJEaUEAZ3J-4YRA51iGpn_8bE",
    "name": "92 Barbershop LLC",
    "address": "1508 N Texas Ave, Odessa, TX 79761, United States",
    "coords": {
      "lat": 31.8585057,
      "lng": -102.3750285
    },
    "rating": 5
  },
  {
    "id": "ChIJK21FbG3_UYYRTGu8atIYkq4",
    "name": "920 Salon& Barber",
    "address": "2074 FM 920 Suite # 101, Weatherford, TX 76088, United States",
    "coords": {
      "lat": 32.78858770000001,
      "lng": -97.8245091
    },
    "rating": 4.6
  },
  {
    "id": "ChIJzYd4OAAzMYYRE2hVncwGD18",
    "name": "93 Octane Premium Kuts",
    "address": "2950 E Texas St, Bossier City, LA 71111, United States",
    "coords": {
      "lat": 32.5262227,
      "lng": -93.7052035
    },
    "rating": 5
  },
  {
    "id": "ChIJEfJXRVs9OIYRuvPJ5lZKiWA",
    "name": "936 Barber Studio",
    "address": "532 S Chestnut St, Lufkin, TX 75901, United States",
    "coords": {
      "lat": 31.3310588,
      "lng": -94.71799860000002
    },
    "rating": 4.4
  },
  {
    "id": "ChIJu-MjutYVUYYRUVy12IDHyTY",
    "name": "977 East Main Street, Eastland, Texas 76448.",
    "address": "Next to Mrs. Brown's Coffee, Shady Oaks Shopping Center, 977 E Main St, Eastland, TX 76448, United States",
    "coords": {
      "lat": 32.4013872,
      "lng": -98.8033347
    },
    "rating": 4.8
  },
  {
    "id": "ChIJle3pkDFrNIYRYV_q3y_YuF4",
    "name": "9th Street Cutz and Stylez",
    "address": "1510 E 9th St, Texarkana, AR 71854, United States",
    "coords": {
      "lat": 33.4306858,
      "lng": -94.0268366
    },
    "rating": null
  },
  {
    "id": "ChIJTcjxeSDO4YYRdQPZBO_RdzY",
    "name": "A Above",
    "address": "1707 Sudderth Dr, Ruidoso, NM 88345, United States",
    "coords": {
      "lat": 33.327578,
      "lng": -105.6627575
    },
    "rating": 4.6
  },
  {
    "id": "ChIJ93oyZF-fQIYRjHmo12B1r-w",
    "name": "A Barber Shop",
    "address": "314 W San Augustine St, Deer Park, TX 77536, United States",
    "coords": {
      "lat": 29.6892069,
      "lng": -95.1259028
    },
    "rating": 4.5
  },
  {
    "id": "ChIJcUuSudcHsocRgKInKd-M6t8",
    "name": "A Barber Shop",
    "address": "503 W Vandament Ave, Yukon, OK 73099, United States",
    "coords": {
      "lat": 35.4937747,
      "lng": -97.7506743
    },
    "rating": 4.7
  },
  {
    "id": "ChIJG7Q6aABB-4YRZYd3mMuj2KA",
    "name": "A better cut. Barbershop",
    "address": "608 N Commercial Ave, Jal, NM 88252, United States",
    "coords": {
      "lat": 32.1054641,
      "lng": -103.1877765
    },
    "rating": null
  },
  {
    "id": "ChIJ-U1fhBIsT4YRrD7Cge395xc",
    "name": "a cut above",
    "address": "111 S 20th St, Corsicana, TX 75110, United States",
    "coords": {
      "lat": 32.0879537,
      "lng": -96.4735866
    },
    "rating": 5
  },
  {
    "id": "ChIJ9SHrEgDJWYYRQ2OSKa_QMaQ",
    "name": "A cut above",
    "address": "400 Frisco Ave, Menard, TX 76859, United States",
    "coords": {
      "lat": 30.92735799999999,
      "lng": -99.78346099999999
    },
    "rating": 5
  },
  {
    "id": "ChIJd7l7K2UtT4YRP_LFxfzP7Hc",
    "name": "A cut above",
    "address": "900 W 5th Ave, Corsicana, TX 75110, United States",
    "coords": {
      "lat": 32.0903982,
      "lng": -96.4720005
    },
    "rating": 4.3
  },
  {
    "id": "ChIJb2152yDFVYYRTPPHKH5c0jI",
    "name": "A Cut Above",
    "address": "243 S Central Ave, Hamlin, TX 79520, United States",
    "coords": {
      "lat": 32.8821611,
      "lng": -100.1256131
    },
    "rating": 5
  },
  {
    "id": "ChIJ_3M-USFCNIYRyu8ml4j94Bs",
    "name": "A Cut Above",
    "address": "3326 Richmond Rd, Texarkana, TX 75503, United States",
    "coords": {
      "lat": 33.4666061,
      "lng": -94.0946568
    },
    "rating": 4.9
  },
  {
    "id": "ChIJDeXWNpUls4cRZIdRuV1koZg",
    "name": "A Cut Above",
    "address": "910 W 14th St, Sulphur, OK 73086, United States",
    "coords": {
      "lat": 34.5071581,
      "lng": -96.985032
    },
    "rating": 4.4
  },
  {
    "id": "ChIJG3-h3mrFqIcROxEF9sbf920",
    "name": "A Cut Above",
    "address": "709 Main St, Woodward, OK 73801, United States",
    "coords": {
      "lat": 36.4358038,
      "lng": -99.38891869999999
    },
    "rating": 4.6
  },
  {
    "id": "ChIJJzijsgcRyYcRANh2v1zyKcQ",
    "name": "A Cut Above Barber and Stylist Lounge",
    "address": "2203 S Promenade Blvd #3185, Rogers, AR 72758, United States",
    "coords": {
      "lat": 36.3035615,
      "lng": -94.1740031
    },
    "rating": 4.4
  },
  {
    "id": "ChIJUSMC5hsfrYcRuMYbie3TLEE",
    "name": "A Cut Above Barber Shop",
    "address": "2326 W Gore Blvd, Lawton, OK 73505, United States",
    "coords": {
      "lat": 34.6085538,
      "lng": -98.4246721
    },
    "rating": 4.7
  },
  {
    "id": "ChIJW7HsOm9zIocRFgMecxmY554",
    "name": "A Cut Above Barber Shop",
    "address": "4514 4th St NW, Albuquerque, NM 87107, United States",
    "coords": {
      "lat": 35.1289796,
      "lng": -106.6429198
    },
    "rating": 4.5
  },
  {
    "id": "ChIJsRV-KDVpZIYRDZIWvbXIySE",
    "name": "A Cut Above Barber Studio",
    "address": "Guerra Garza Rd, Rio Grande City, TX 78582, United States",
    "coords": {
      "lat": 26.3972566,
      "lng": -98.92386859999999
    },
    "rating": 5
  },
  {
    "id": "ChIJeyYktzV2ZYYR0oo4YfWUtac",
    "name": "A Cut Above Barbershop and Salon",
    "address": "900 N Border Ave suite b, Weslaco, TX 78596, United States",
    "coords": {
      "lat": 26.1700907,
      "lng": -97.9985007
    },
    "rating": 4.4
  },
  {
    "id": "ChIJkeuBIwWzy4cRBZA4TrVAm-M",
    "name": "A Cut Above Barbershop of Fort Smith",
    "address": "5111 Rogers Ave suite 195, Fort Smith, AR 72903, United States",
    "coords": {
      "lat": 35.3672933,
      "lng": -94.37392799999999
    },
    "rating": 4.3
  },
  {
    "id": "ChIJ__I7MQZqNIYRw2PtKzmXRKY",
    "name": "A Cut Above Others TXK",
    "address": "3505 Summerhill Rd, Texarkana, TX 75503, United States",
    "coords": {
      "lat": 33.4514001,
      "lng": -94.06555870000001
    },
    "rating": 4.8
  },
  {
    "id": "ChIJtTTLS_FfUYYRNwGflfqpN5A",
    "name": "A Cutting Venue",
    "address": "901 E Walker St, Breckenridge, TX 76424, United States",
    "coords": {
      "lat": 32.7552793,
      "lng": -98.8912064
    },
    "rating": 5
  },
  {
    "id": "ChIJeW-V02wuTIYRRNyjWIK-xoQ",
    "name": "A Different Cut Barbershop",
    "address": "705 S Mill St Suit #106, Lewisville, TX 75057, United States",
    "coords": {
      "lat": 33.0397763,
      "lng": -96.99326719999999
    },
    "rating": 4.8
  },
  {
    "id": "ChIJswkkhHHhNIYRhMQOziF_DTs",
    "name": "A Gentleman's Cut Barber Shop",
    "address": "304 W Collin Raye Dr Ste 110A, De Queen, AR 71832, United States",
    "coords": {
      "lat": 34.04674320000001,
      "lng": -94.3410535
    },
    "rating": 3.9
  },
  {
    "id": "ChIJBevZjFSJN4YRAa0noXeftys",
    "name": "A Gentleman's Haircut",
    "address": "3205 N University Dr STE Q, Nacogdoches, TX 75965, United States",
    "coords": {
      "lat": 31.6337701,
      "lng": -94.64093369999999
    },
    "rating": 4.2
  },
  {
    "id": "ChIJi1FoIvmDb4YR8UU6fUefAUc",
    "name": "A Good Man's Barber Shop",
    "address": "1235 N 77 Sunshine Strip, Harlingen, TX 78550, United States",
    "coords": {
      "lat": 26.2044494,
      "lng": -97.68817680000001
    },
    "rating": 5
  },
  {
    "id": "ChIJtRY1Zprbj4YRhMrch0-USgE",
    "name": "A la mala Barber Shop",
    "address": "C. La Opinión 373, Colonia centro, 27000 Torreón, Coah., Mexico",
    "coords": {
      "lat": 25.5445681,
      "lng": -103.4259084
    },
    "rating": 4.5
  },
  {
    "id": "ChIJrVGxRy-7PoYRvcQRxcTLRZ4",
    "name": "A lo cubano barber shop",
    "address": "3890 Gulfway Dr, Port Arthur, TX 77642, United States",
    "coords": {
      "lat": 29.9100415,
      "lng": -93.9180217
    },
    "rating": 4.6
  },
  {
    "id": "ChIJhZH6pI8TCIcRCVfyrlLulO8",
    "name": "A Mark of Beauty",
    "address": "215 N Kansas Ave, Liberal, KS 67901, United States",
    "coords": {
      "lat": 37.0403075,
      "lng": -100.9221632
    },
    "rating": 4.5
  },
  {
    "id": "ChIJB5xv89m4GIcRDJAfgPOee7U",
    "name": "A Nu-U Salon",
    "address": "8 George Ct F, Edgewood, NM 87015, United States",
    "coords": {
      "lat": 35.0654135,
      "lng": -106.1976229
    },
    "rating": 4.8
  },
  {
    "id": "ChIJLxt__w33IYcR5zZaHc8QCs0",
    "name": "A Perfect Look",
    "address": "312A E Reinken Ave, Belen, NM 87002, United States",
    "coords": {
      "lat": 34.6602737,
      "lng": -106.763209
    },
    "rating": 5
  },
  {
    "id": "ChIJEwpEoU6FT4YRUvrW8D97Dsc",
    "name": "A Playa Touch",
    "address": "1225 Richland Dr, Waco, TX 76710, United States",
    "coords": {
      "lat": 31.5305942,
      "lng": -97.1932042
    },
    "rating": 5
  },
  {
    "id": "ChIJU0Q0QscMIocR_Hc599vK9m0",
    "name": "A Real Barber Shop",
    "address": "521 Central Ave NW H, Albuquerque, NM 87102, United States",
    "coords": {
      "lat": 35.0849574,
      "lng": -106.6537497
    },
    "rating": 4.2
  },
  {
    "id": "ChIJGSY0aZlsNYYRHfDRYd7zL4o",
    "name": "A Salon Vanessa's Place (Hair Salon & Barbering)",
    "address": "809 W Choctaw St, Broken Bow, OK 74728, United States",
    "coords": {
      "lat": 34.0223879,
      "lng": -94.7461122
    },
    "rating": 4.5
  },
  {
    "id": "ChIJfcK35B_nQIYRIh8_De0g6Lc",
    "name": "A Shaving Grace",
    "address": "16535 Southwest Fwy Suite 815, Sugar Land, TX 77479, United States",
    "coords": {
      "lat": 29.5924903,
      "lng": -95.6254959
    },
    "rating": 4.6
  },
  {
    "id": "ChIJ9ZUAUsGTQIYRr5omu03Wd7g",
    "name": "A Shaving Grace",
    "address": "11200 Broadway St #625, Pearland, TX 77584, United States",
    "coords": {
      "lat": 29.5538037,
      "lng": -95.3937357
    },
    "rating": 3.9
  },
  {
    "id": "ChIJzTZOVHSbQIYRCfRE6L4S1z0",
    "name": "A Shaving Grace Barber Shop",
    "address": "500 Baybrook Mall Suite 1082, Friendswood, TX 77546, United States",
    "coords": {
      "lat": 29.542113,
      "lng": -95.1487454
    },
    "rating": 4.3
  },
  {
    "id": "ChIJXyGrZvLJQIYRFUzUsYIZvVo",
    "name": "A Shaving Grace Barber Shop",
    "address": "20131 US-59 #2232, Humble, TX 77338, United States",
    "coords": {
      "lat": 30.0109523,
      "lng": -95.26984159999999
    },
    "rating": 4.2
  },
  {
    "id": "ChIJ5yTNlie3UYYRNVuMALGaBLI",
    "name": "A Wild",
    "address": "355 W Frey, Stephenville, TX 76401, United States",
    "coords": {
      "lat": 32.2263443,
      "lng": -98.2087869
    },
    "rating": 4.8
  },
  {
    "id": "ChIJy1Jf039MRYYRiTbAoR3yqfY",
    "name": "A-1 Barber Shop",
    "address": "512 N Fort Hood St, Killeen, TX 76541, United States",
    "coords": {
      "lat": 31.1265888,
      "lng": -97.7404316
    },
    "rating": 4.3
  },
  {
    "id": "ChIJv8bUfb5PAYcRHiepGi5bAwY",
    "name": "A-1 Cuts",
    "address": "4008 S Washington St unit b, Amarillo, TX 79110, United States",
    "coords": {
      "lat": 35.1720141,
      "lng": -101.8489459
    },
    "rating": 4.9
  },
  {
    "id": "ChIJgxl1t7dvZIYRVVw9S1fo8n4",
    "name": "A-one cutz",
    "address": "5213 US-83 Suite 2, Roma, TX 78584, United States",
    "coords": {
      "lat": 26.4076733,
      "lng": -98.9767322
    },
    "rating": 4.3
  },
  {
    "id": "ChIJZ50MUq2PX4YRSFXZoj_5rYc",
    "name": "A-SQUAD BARBERSHOP",
    "address": "2222 Del Rio Blvd, Eagle Pass, TX 78852, United States",
    "coords": {
      "lat": 28.7327071,
      "lng": -100.4955573
    },
    "rating": 4.2
  },
  {
    "id": "ChIJicKk7b5hXYYROH0v1KngzWA",
    "name": "A's Barbershop",
    "address": "203 E Thornton St, Three Rivers, TX 78071, United States",
    "coords": {
      "lat": 28.460682,
      "lng": -98.1811077
    },
    "rating": 4.6
  },
  {
    "id": "ChIJ1V-dIOTTr4cRcox-F9Aq_6k",
    "name": "A&J Barber and Style",
    "address": "1406 S Van Buren St, Enid, OK 73703, United States",
    "coords": {
      "lat": 36.3822157,
      "lng": -97.89032449999999
    },
    "rating": 4.7
  },
  {
    "id": "ChIJdxDNN4LLRIYRU2N4T530wGc",
    "name": "A&L Cuts Barbershop",
    "address": "300 W Huntland Dr Unit A, Austin, TX 78752, United States",
    "coords": {
      "lat": 30.33061,
      "lng": -97.715041
    },
    "rating": 4.7
  },
  {
    "id": "ChIJ-RzPumhfXIYRO2l8UXb-WSY",
    "name": "A&R Gentlemen's Barbershop",
    "address": "349 St Cloud, San Antonio, TX 78228, United States",
    "coords": {
      "lat": 29.4599244,
      "lng": -98.55017989999999
    },
    "rating": 4.8
  },
  {
    "id": "ChIJtY97QACVwoYR2gyrqd8jnwM",
    "name": "A&Z BARBER STUDIO",
    "address": "21 de marzo, Cuarta Sur, Sin Nombre, 31884 Ejido Benito Juárez, Chih., Mexico",
    "coords": {
      "lat": 30.1409582,
      "lng": -106.8862479
    },
    "rating": null
  },
  {
    "id": "ChIJl2Yx-Pn5XIYRi1j1jVWJeMU",
    "name": "A1 Fades Barber Shop",
    "address": "9503 Southton Rd, San Antonio, TX 78223, United States",
    "coords": {
      "lat": 29.32516309999999,
      "lng": -98.4334377
    },
    "rating": 4
  },
  {
    "id": "ChIJywP7JH5MRYYR0i1iOXKYfcQ",
    "name": "AAA U.S. Barbershop",
    "address": "410 N Fort Hood St, Killeen, TX 76541, United States",
    "coords": {
      "lat": 31.1251952,
      "lng": -97.74086609999999
    },
    "rating": 4.7
  },
  {
    "id": "ChIJ6apHy7uJXIYR2sJudBiA43M",
    "name": "Aaron & Hur.",
    "address": "1607 19th St, Hondo, TX 78861, United States",
    "coords": {
      "lat": 29.3469283,
      "lng": -99.1469341
    },
    "rating": 5
  },
  {
    "id": "ChIJS8M4AoMhU4YR3JWHmqElW40",
    "name": "AB's Blends",
    "address": "913 Indiana Ave, Wichita Falls, TX 76301, United States",
    "coords": {
      "lat": 33.9113033,
      "lng": -98.4893888
    },
    "rating": 5
  },
  {
    "id": "ChIJ7ycwd3EBToYRS5buO2yyrmU",
    "name": "Aba kays cutz",
    "address": "1714 Fort Worth Hwy, Weatherford, TX 76086, United States",
    "coords": {
      "lat": 32.7564219,
      "lng": -97.7581984
    },
    "rating": null
  },
  {
    "id": "ChIJ916nrVhdZIYRhlBqbllyNbQ",
    "name": "ABALLEROS BARBER SHOP",
    "address": "Jalisco, Centro, 88440 Cdad. Camargo, Tamps., Mexico",
    "coords": {
      "lat": 26.3179281,
      "lng": -98.83568210000001
    },
    "rating": null
  },
  {
    "id": "ChIJ3WQ15FoNtocRepD5v0G2CVA",
    "name": "ABC Salon",
    "address": "404 W Cherokee St, Wagoner, OK 74467, United States",
    "coords": {
      "lat": 35.9599306,
      "lng": -95.3813291
    },
    "rating": 4.6
  },
  {
    "id": "ChIJJ-NH4pQOrYcRz97c8N4nUxs",
    "name": "Abe's Barber Shop",
    "address": "516 Cole Ave, Fletcher, OK 73541, United States",
    "coords": {
      "lat": 34.8229548,
      "lng": -98.2457886
    },
    "rating": 4.5
  },
  {
    "id": "ChIJcYSxjWzlNYYRslAcWazDb-o",
    "name": "AbesFades Barber Academy",
    "address": "821 County Rd 4660, Mt Pleasant, TX 75455, United States",
    "coords": {
      "lat": 33.1147934,
      "lng": -94.8861929
    },
    "rating": 4.4
  },
  {
    "id": "ChIJVVWBUGZFAYcRtQrmyVT8fnc",
    "name": "Abi-Girl The Barber",
    "address": "6801 Bell St suite 900, Amarillo, TX 79109, United States",
    "coords": {
      "lat": 35.1386314,
      "lng": -101.9012568
    },
    "rating": 5
  },
  {
    "id": "ChIJQyDEVRSPVoYRXMUYXiud3q8",
    "name": "Abilene Barber Academy",
    "address": "1102 N 3rd St suite c, Abilene, TX 79601, United States",
    "coords": {
      "lat": 32.4518438,
      "lng": -99.73452619999999
    },
    "rating": 4.6
  },
  {
    "id": "ChIJKbEkRF2OVoYRxmEejOX33sY",
    "name": "Abilene Cuts",
    "address": "249 N Mockingbird Ln, Abilene, TX 79603, United States",
    "coords": {
      "lat": 32.4528926,
      "lng": -99.7577311
    },
    "rating": 4.5
  },
  {
    "id": "ChIJtfjV9JIzMYYRx8GhCehfmBI",
    "name": "Above Ground Kutz Located in New Beginnings Hair Studio",
    "address": "998 Northgate Rd, Bossier City, LA 71112, United States",
    "coords": {
      "lat": 32.5138815,
      "lng": -93.6848165
    },
    "rating": 5
  },
  {
    "id": "ChIJXTqiEoSDT4YRu9hIEp8vo-0",
    "name": "Abraham the barber",
    "address": "1601 Washington Ave, Waco, TX 76701, United States",
    "coords": {
      "lat": 31.5488703,
      "lng": -97.14329889999999
    },
    "rating": null
  },
  {
    "id": "ChIJd93ovItCZIYRMz-OCpP9Mtk",
    "name": "Absolute Beauty Barber Shop",
    "address": "306 E 2nd St, Rio Grande City, TX 78582, United States",
    "coords": {
      "lat": 26.3790361,
      "lng": -98.81783290000001
    },
    "rating": 5
  },
  {
    "id": "ChIJlZPL67mDRoYRESqaPEE13Wo",
    "name": "Absolute Images Barber Hair",
    "address": "4335 Wellborn Rd, Bryan, TX 77801, United States",
    "coords": {
      "lat": 30.6211846,
      "lng": -96.3528351
    },
    "rating": 4.4
  },
  {
    "id": "ChIJg5Z1ttNYXIYR2RFXqUz7A4w",
    "name": "Acapulco barber shop",
    "address": "1801 Guadalupe St, San Antonio, TX 78207, United States",
    "coords": {
      "lat": 29.4191221,
      "lng": -98.520221
    },
    "rating": 4.4
  },
  {
    "id": "ChIJs3QGFqaiQIYRmhzchK5dlBI",
    "name": "Acapulco Barber Shop",
    "address": "306 W Southmore Ave, Pasadena, TX 77502, United States",
    "coords": {
      "lat": 29.6909126,
      "lng": -95.2152491
    },
    "rating": 3.9
  },
  {
    "id": "ChIJBXrKwD4hYYYRg2pFg9-cqc4",
    "name": "Ace & Blade Barbershop",
    "address": "9413 McPherson Rd Suit 3, Laredo, TX 78045, United States",
    "coords": {
      "lat": 27.5948998,
      "lng": -99.4797148
    },
    "rating": 1
  },
  {
    "id": "ChIJPQ5Ls7gMIocRS5hf6Rh5TPQ",
    "name": "Ace Barber Shop",
    "address": "109 4th St SW, Albuquerque, NM 87102, United States",
    "coords": {
      "lat": 35.08420710000001,
      "lng": -106.6517897
    },
    "rating": 4.7
  },
  {
    "id": "ChIJJ8NTPxq1y4cRgj4_oGiNhQk",
    "name": "Ace Kapper barber",
    "address": "520 Pointer Trail, Van Buren, AR 72956, United States",
    "coords": {
      "lat": 35.4585528,
      "lng": -94.35472659999999
    },
    "rating": null
  },
  {
    "id": "ChIJn2dcXDJZsYcRo_VzyW-VOhQ",
    "name": "Ace of clubs Barber Shop",
    "address": "316 N 4th Ave, Stroud, OK 74079, United States",
    "coords": {
      "lat": 35.749718,
      "lng": -96.657979
    },
    "rating": 4.8
  },
  {
    "id": "ChIJq81XNBuPVoYRgwpBkEIu9b8",
    "name": "Ace of Fade'z",
    "address": "1350 N Mockingbird Ln suite c, Abilene, TX 79603, United States",
    "coords": {
      "lat": 32.4649826,
      "lng": -99.75841229999999
    },
    "rating": 4.9
  },
  {
    "id": "ChIJDdyfyg23PoYRCINS6lGm4Z8",
    "name": "Ace of Fades | Barber Shop",
    "address": "1028 Nederland Ave, Nederland, TX 77627, United States",
    "coords": {
      "lat": 29.9764176,
      "lng": -93.98787929999999
    },
    "rating": 4.8
  },
  {
    "id": "ChIJWacpm4kDkVQR98_fEy4epH4",
    "name": "Ace of fades barber lounge",
    "address": "14117 Pacific Ave S unit c, Tacoma, WA 98444, United States",
    "coords": {
      "lat": 47.1287166,
      "lng": -122.43426
    },
    "rating": 4.8
  },
  {
    "id": "ChIJj_3s-a1dXIYRje4WcHbt0Es",
    "name": "Ace of Fades Barber Lounge LLC",
    "address": "7303 Marbach Rd Suite 105, San Antonio, TX 78227, United States",
    "coords": {
      "lat": 29.4180755,
      "lng": -98.6338693
    },
    "rating": 4.8
  },
  {
    "id": "ChIJM2L9MpLHA4cROgQXPZzZsOY",
    "name": "Ace of Fades Barber Shop",
    "address": "121 W Park Ave, Hereford, TX 79045, United States",
    "coords": {
      "lat": 34.8213441,
      "lng": -102.4068552
    },
    "rating": null
  },
  {
    "id": "ChIJQ1F6Et93ZYYRfVH4FxPprak",
    "name": "Ace of Fades Barber Shop LLC",
    "address": "105 E 3rd St Suite B, Weslaco, TX 78596, United States",
    "coords": {
      "lat": 26.159132,
      "lng": -97.9902877
    },
    "rating": 4.7
  },
  {
    "id": "ChIJRUCxfVdkSIYRXRokXgNMIrk",
    "name": "Ace of Fades Barber Studio",
    "address": "2541 US-79 Ste.101, Palestine, TX 75801, United States",
    "coords": {
      "lat": 31.782631,
      "lng": -95.6103086
    },
    "rating": 4.6
  },
  {
    "id": "ChIJPWCDUp1FP4YR7HaZyuoDpG0",
    "name": "Ace of fades barbershop",
    "address": "9855 Eagle Dr, Baytown, TX 77523, United States",
    "coords": {
      "lat": 29.8416485,
      "lng": -94.8547736
    },
    "rating": 4.3
  },
  {
    "id": "ChIJ38gkexkhYYYR2upo4A2HjSE",
    "name": "Ace Of Fades Barbershop",
    "address": "1319 Hillside Rd Suite B, Laredo, TX 78041, United States",
    "coords": {
      "lat": 27.5449197,
      "lng": -99.4793802
    },
    "rating": null
  },
  {
    "id": "ChIJ715n3e1TzIcR2HBkkOGYbB0",
    "name": "Ace Of Fades Barbershop",
    "address": "304 W Main St, Russellville, AR 72801, United States",
    "coords": {
      "lat": 35.2787425,
      "lng": -93.1356535
    },
    "rating": 5
  },
  {
    "id": "ChIJdYh_lH0hU4YRz-zam4uGeGw",
    "name": "ACE OF FADES BARBERSHOP",
    "address": "1512 Harrison St, Wichita Falls, TX 76309, United States",
    "coords": {
      "lat": 33.8965748,
      "lng": -98.5121277
    },
    "rating": 5
  },
  {
    "id": "ChIJb8uixKVlaIYRxtyAR3FmmU4",
    "name": "Ace of Fadez Barber Studio",
    "address": "9359 I-37 suite 3, Corpus Christi, TX 78409, United States",
    "coords": {
      "lat": 27.8333525,
      "lng": -97.54735649999999
    },
    "rating": 5
  },
  {
    "id": "ChIJMRr1UgaDT4YRWOeMFoWovoE",
    "name": "Ace Of Fadez Barbershop",
    "address": "907 N 25th St unit b, Waco, TX 76707, United States",
    "coords": {
      "lat": 31.54699859999999,
      "lng": -97.15770979999999
    },
    "rating": 4.9
  },
  {
    "id": "ChIJRa0-pxBUW4YRsnyFpm8EbjI",
    "name": "Ace of Spades",
    "address": "147 Elmhurst Dr #700, Kyle, TX 78640, United States",
    "coords": {
      "lat": 30.0000373,
      "lng": -97.8609907
    },
    "rating": 4
  },
  {
    "id": "ChIJbUbfmpXJs4cRMhdqsWTfsjs",
    "name": "Ace The Barber",
    "address": "20 E 9th St, Shawnee, OK 74801, United States",
    "coords": {
      "lat": 35.3289939,
      "lng": -96.92246480000001
    },
    "rating": 4.5
  },
  {
    "id": "ChIJ93mR38rZ-4YRPwoUcnAYZj4",
    "name": "Aces & Eights Barber Shop",
    "address": "3303 N Midkiff Rd #170, Midland, TX 79705, United States",
    "coords": {
      "lat": 32.0213995,
      "lng": -102.126272
    },
    "rating": 4.6
  },
  {
    "id": "ChIJsxVQib3Pi4YRDnkPNnPky6c",
    "name": "Acktoz Barber Shop",
    "address": "Lic. Juan Antonio de La Fuente 1203, Asturias, 25790 Monclova, Coah., Mexico",
    "coords": {
      "lat": 26.8493616,
      "lng": -101.4270255
    },
    "rating": 4.8
  },
  {
    "id": "ChIJybwjBp7cj4YRTOgy0xR7B3w",
    "name": "ACME BARBER SHOP",
    "address": "Calle Calz Paseo del Tecnológico 1425B, Villas de la Hacienda, 27272 Torreón, Coah., Mexico",
    "coords": {
      "lat": 25.5162577,
      "lng": -103.3873713
    },
    "rating": 4.6
  },
  {
    "id": "ChIJRbqoVeUZ-4YRe46WG1j0f_U",
    "name": "Acosta Creations",
    "address": "945 Robinson St, Kermit, TX 79745, United States",
    "coords": {
      "lat": 31.8462301,
      "lng": -103.0935778
    },
    "rating": 4.4
  },
  {
    "id": "ChIJfwB8yWIlQYYRJXDBwnsXTLM",
    "name": "AD Barbershop",
    "address": "27252 Katy Fwy unit 600, Katy, TX 77494, United States",
    "coords": {
      "lat": 29.7785786,
      "lng": -95.84436790000001
    },
    "rating": 4.9
  },
  {
    "id": "ChIJGYn_FOF3GYcRVHkSifkLha4",
    "name": "Adam's Cuts Barber Shop",
    "address": "233 Plaza, Las Vegas, NM 87701, United States",
    "coords": {
      "lat": 35.5922684,
      "lng": -105.2267124
    },
    "rating": 4.6
  },
  {
    "id": "ChIJtQe9wIocrIcRaHwmZCb6lwo",
    "name": "Adam's Edge",
    "address": "811 Frisco Ave, Clinton, OK 73601, United States",
    "coords": {
      "lat": 35.5145308,
      "lng": -98.9701842
    },
    "rating": 4.6
  },
  {
    "id": "ChIJiVJFalMPrYcRm-BRMwoAbJA",
    "name": "AdandaBarber",
    "address": "11931 NE Trail Rd, Elgin, OK 73538, United States",
    "coords": {
      "lat": 34.768473,
      "lng": -98.26606799999999
    },
    "rating": null
  },
  {
    "id": "ChIJcUgPwwuSB4cRgqXKpwjqen4",
    "name": "Added Touch of Hair Design",
    "address": "601 S Amherst St, Perryton, TX 79070, United States",
    "coords": {
      "lat": 36.3941679,
      "lng": -100.8038458
    },
    "rating": 4.7
  },
  {
    "id": "ChIJ4R_fCTVLW4YRI0TlyNV6_cA",
    "name": "Adolph's Barber Shop",
    "address": "1901 W Ben White Blvd, Austin, TX 78704, United States",
    "coords": {
      "lat": 30.2290732,
      "lng": -97.78779809999999
    },
    "rating": 4.5
  },
  {
    "id": "ChIJLZCsO7BR9YYRwj2gMhyyn80",
    "name": "ADONAI BARBER SHOP",
    "address": "Agustin de Iturbide 990, 2 de Agosto, 26170 Nava, Coah., Mexico",
    "coords": {
      "lat": 28.4153941,
      "lng": -100.7759394
    },
    "rating": 3
  },
  {
    "id": "ChIJiSnUUQAV64YRNH5sw1OQgB4",
    "name": "Adonai Barber shop studio",
    "address": "Av. Mitla, 33018 Delicias, Chih., Mexico",
    "coords": {
      "lat": 28.2009437,
      "lng": -105.4332832
    },
    "rating": 5
  },
  {
    "id": "ChIJ39N00Vh4BIcRMAnqyHP8QeA",
    "name": "Adrian Cafe",
    "address": "Adrian, TX 79001, United States",
    "coords": {
      "lat": 35.2707845,
      "lng": -102.6735282
    },
    "rating": 4.5
  },
  {
    "id": "ChIJWTSnQGzJ-4YRORgnPqgiEn0",
    "name": "Adrian Gabaldon Fade City",
    "address": "1512 N Grant Ave, Odessa, TX 79761, United States",
    "coords": {
      "lat": 31.8578478,
      "lng": -102.3761434
    },
    "rating": 4.8
  },
  {
    "id": "ChIJJXS6rJJNRYYRGr6L0oZbtGI",
    "name": "Adrian Jamal Da Barber",
    "address": "810 W Rancier Ave #500, Killeen, TX 76541, United States",
    "coords": {
      "lat": 31.1284183,
      "lng": -97.7362023
    },
    "rating": 4.7
  },
  {
    "id": "ChIJYUY16YflV4YR40BU93wZ1cw",
    "name": "Adriana's",
    "address": "2101 Ben Ficklin Rd STE B, San Angelo, TX 76903, United States",
    "coords": {
      "lat": 31.4393523,
      "lng": -100.4406582
    },
    "rating": 4.6
  },
  {
    "id": "ChIJKYQPaQBHNoYRFGRKLEcxR98",
    "name": "Adrians’s barbershop",
    "address": "707 Kay Dr, Longview, TX 75601, United States",
    "coords": {
      "lat": 32.5067133,
      "lng": -94.68441779999999
    },
    "rating": 5
  },
  {
    "id": "ChIJJcQHcGdYSoYRRc1wlzQ14OQ",
    "name": "Advance Barber Shop",
    "address": "1023 S Collegiate Dr, Paris, TX 75460, United States",
    "coords": {
      "lat": 33.6525301,
      "lng": -95.5263164
    },
    "rating": 4.6
  },
  {
    "id": "ChIJT3LbnIfJU4YRDKueMzhZF7k",
    "name": "After",
    "address": "1425 4th St, Graham, TX 76450, United States",
    "coords": {
      "lat": 33.1072992,
      "lng": -98.57057879999999
    },
    "rating": 4.7
  },
  {
    "id": "ChIJ5bvU76aOtocRxOpWgwUk4fw",
    "name": "After Fx Spa & Salon",
    "address": "2237 West Washington St S, Broken Arrow, OK 74012, United States",
    "coords": {
      "lat": 36.031528,
      "lng": -95.81650499999999
    },
    "rating": 4.7
  },
  {
    "id": "ChIJs_pz_xETrIcRiE50Ea2lBJU",
    "name": "After Hour Barbershop",
    "address": "207 E Main St, New Cordell, OK 73632, United States",
    "coords": {
      "lat": 35.2914248,
      "lng": -98.9884567
    },
    "rating": 5
  },
  {
    "id": "ChIJG6uBBM64QIYR7g7lu8ciSLE",
    "name": "Afterhours Barbershop",
    "address": "2124 N Main St c, Houston, TX 77009, United States",
    "coords": {
      "lat": 29.7794061,
      "lng": -95.3628629
    },
    "rating": 4.5
  },
  {
    "id": "ChIJv14jqF31sIcRynnjQs_EMuI",
    "name": "Aftershave Barbering Co.",
    "address": "413 N 14th St, Ponca City, OK 74604, United States",
    "coords": {
      "lat": 36.7071141,
      "lng": -97.0665246
    },
    "rating": 4.3
  },
  {
    "id": "ChIJb9xsyFVH9YYRqUk-Ow4DtOU",
    "name": "AG Barber Studio",
    "address": "Avenida Ignacio Zaragoza, Vicente guerrero oriente 304, Zona Centro, 26450 Coah., Mexico",
    "coords": {
      "lat": 28.4903594,
      "lng": -100.9184058
    },
    "rating": null
  },
  {
    "id": "ChIJl69UuvFTzIcRFuOtZhdZeXE",
    "name": "Ag barbershop",
    "address": "306 S Arkansas Ave, Russellville, AR 72801, United States",
    "coords": {
      "lat": 35.2759764,
      "lng": -93.1341044
    },
    "rating": 5
  },
  {
    "id": "ChIJIWKyB5I1XYYRscB17Lm-nrQ",
    "name": "Against The Grain Barbershop",
    "address": "104 Shady Ln, Kenedy, TX 78119, United States",
    "coords": {
      "lat": 28.8258378,
      "lng": -97.8574556
    },
    "rating": 4.4
  },
  {
    "id": "ChIJE30_fDUX3oYReENNe5rUOiA",
    "name": "AGtheBarber",
    "address": "1290 Foster Rd, Las Cruces, NM 88001, United States",
    "coords": {
      "lat": 32.297699,
      "lng": -106.7616487
    },
    "rating": 5
  },
  {
    "id": "ChIJ_SRRrhtJj4YRdRStdZ7k7TU",
    "name": "Aguistin Churruca",
    "address": "Primero de Mayo, Barrio el Santuario, Zona Centro, 27986 Parras de la Fuente, Coah., Mexico",
    "coords": {
      "lat": 25.4429197,
      "lng": -102.1865282
    },
    "rating": 4
  },
  {
    "id": "ChIJy8SLxNr1aIYRi1A1WuZNG5s",
    "name": "Airline Barbershop",
    "address": "949 Airline Rd, Corpus Christi, TX 78412, United States",
    "coords": {
      "lat": 27.7142737,
      "lng": -97.36264440000001
    },
    "rating": 5
  },
  {
    "id": "ChIJjx85Il79SIYRCoQvuReK1Ek",
    "name": "Aj the Barber",
    "address": "205 S Palestine St, Athens, TX 75751, United States",
    "coords": {
      "lat": 32.2028551,
      "lng": -95.85354230000002
    },
    "rating": null
  },
  {
    "id": "ChIJU0G2_DGtUYYRqIBu0RnQ1yM",
    "name": "AJ's",
    "address": "233 N Patrick St, Dublin, TX 76446, United States",
    "coords": {
      "lat": 32.0875566,
      "lng": -98.34141939999999
    },
    "rating": 4.7
  },
  {
    "id": "ChIJRctfmgqTsYcR6AOY-NMeza4",
    "name": "AJ's BARBER SHOP",
    "address": "107 W Harrison Ave, Guthrie, OK 73044, United States",
    "coords": {
      "lat": 35.87666129999999,
      "lng": -97.4258409
    },
    "rating": 3.8
  },
  {
    "id": "ChIJB1xFUlmVb4YRdE_dTs5-dgQ",
    "name": "AJ’s Barbershop/Salon",
    "address": "2040 E 14th St, Brownsville, TX 78521, United States",
    "coords": {
      "lat": 25.90923,
      "lng": -97.4853203
    },
    "rating": 5
  },
  {
    "id": "ChIJ2XUX4HAsT4YRhEM2Xjj-fm4",
    "name": "Al's Barber Shop",
    "address": "104 S Beaton St B, Corsicana, TX 75110, United States",
    "coords": {
      "lat": 32.09330000000001,
      "lng": -96.4636434
    },
    "rating": 3
  },
  {
    "id": "ChIJZw8o7SMN_oYR0oGJtK-o3mc",
    "name": "Alamo Barber Shop",
    "address": "5409 4th St K, Lubbock, TX 79416, United States",
    "coords": {
      "lat": 33.5919439,
      "lng": -101.9279115
    },
    "rating": 4.7
  },
  {
    "id": "ChIJCTpoxUn3XIYRiYDBAwLExVE",
    "name": "Alamo Barbershop",
    "address": "2115 Goliad Rd Suite 101, San Antonio, TX 78223, United States",
    "coords": {
      "lat": 29.3635089,
      "lng": -98.4399751
    },
    "rating": 4.9
  },
  {
    "id": "ChIJpyS-k0hR4IYREAa9Wr2SbS4",
    "name": "Alamogordo Grooming Co. - Barber & Salon",
    "address": "708 N Florida Ave suite b, Alamogordo, NM 88310, United States",
    "coords": {
      "lat": 32.8970973,
      "lng": -105.9528515
    },
    "rating": 4.9
  },
  {
    "id": "ChIJ6_eTJl9Q4IYR1k3301ymvcs",
    "name": "Alamogordo School-Barbering",
    "address": "1011 Madison Ave, Alamogordo, NM 88310, United States",
    "coords": {
      "lat": 32.9003329,
      "lng": -105.941772
    },
    "rating": 3
  },
  {
    "id": "ChIJYVE79nhDQIYRw3rbf4MrQGY",
    "name": "Alan's Barbershop",
    "address": "1541 FM 2004, Richwood, TX 77531, United States",
    "coords": {
      "lat": 29.0657861,
      "lng": -95.41919840000001
    },
    "rating": 4.8
  },
  {
    "id": "ChIJzSRjTzhfAocRBeqdKPCD7ZE",
    "name": "Alanis Barber Co.",
    "address": "109 S 1st St, Muleshoe, TX 79347, United States",
    "coords": {
      "lat": 34.2259278,
      "lng": -102.7240372
    },
    "rating": 5
  },
  {
    "id": "ChIJs8CoDUyFTIYRw6nufM07IHk",
    "name": "Alb & Cody",
    "address": "330 N Mirick Ave, Denison, TX 75020, United States",
    "coords": {
      "lat": 33.7529479,
      "lng": -96.54299449999999
    },
    "rating": 4.8
  },
  {
    "id": "ChIJ69jomCrXTYYRGgn_ZawiEdE",
    "name": "Albert barbershop",
    "address": "2730 W Irving Blvd, Irving, TX 75061, United States",
    "coords": {
      "lat": 32.829407,
      "lng": -96.98394139999999
    },
    "rating": 4.9
  },
  {
    "id": "ChIJD94vT87J-4YR4r6Yqz1HolM",
    "name": "Alberto Baeza @ First Choice",
    "address": "410 N Texas Ave, Odessa, TX 79761, United States",
    "coords": {
      "lat": 31.848551,
      "lng": -102.3679923
    },
    "rating": 5
  },
  {
    "id": "ChIJi0C1vS8NiIYRkgHR6Wke0SQ",
    "name": "Alberto's Barber Shop",
    "address": "C. Otilio González 3345, Universidad Pueblo, 25023 Saltillo, Coah., Mexico",
    "coords": {
      "lat": 25.4028092,
      "lng": -100.9709978
    },
    "rating": 4.8
  },
  {
    "id": "ChIJISCvauEKIocRzmtFK8pkOyw",
    "name": "Albuquerque Barber College",
    "address": "4005 Carlisle Blvd NE, Albuquerque, NM 87107, United States",
    "coords": {
      "lat": 35.1264689,
      "lng": -106.60469
    },
    "rating": 4.5
  },
  {
    "id": "ChIJW0jJ9IYLIocR4LbyzwxsR7I",
    "name": "Albuquerque Barber Lounge",
    "address": "2433 Wyoming Blvd NE, Albuquerque, NM 87112, United States",
    "coords": {
      "lat": 35.1124844,
      "lng": -106.5510559
    },
    "rating": 4.9
  },
  {
    "id": "ChIJKZnOQRELIocRWsDbgBPzIJo",
    "name": "Albuquerque Barber Lounge",
    "address": "3500 Menaul Blvd NE #5, Albuquerque, NM 87107, United States",
    "coords": {
      "lat": 35.1088909,
      "lng": -106.6051936
    },
    "rating": 4.7
  },
  {
    "id": "ChIJbVs3ewAPZYYRTq64peF2o6I",
    "name": "Alcala’s Barber Shop",
    "address": "C. Bosque de Los Alpes 900, Balcones de Alcalá, 88799 Reynosa, Tamps., Mexico",
    "coords": {
      "lat": 26.0069192,
      "lng": -98.2563885
    },
    "rating": 5
  },
  {
    "id": "ChIJabLRNLIRsocR39x_e9LOL5I",
    "name": "Ale Salon & Barbershop",
    "address": "3016 S Western Ave, Oklahoma City, OK 73109, United States",
    "coords": {
      "lat": 35.4346146,
      "lng": -97.52992789999999
    },
    "rating": 4.1
  },
  {
    "id": "ChIJB5NYOvxziIYRnXkAddXOZLk",
    "name": "Ale's Barber Shop",
    "address": "Manuel W. González 2813, Eulalio Gutiérrez Treviño, 25080 Saltillo, Coah., Mexico",
    "coords": {
      "lat": 25.3855968,
      "lng": -101.0157535
    },
    "rating": null
  },
  {
    "id": "ChIJbVXzFnHPi4YRpnEsVkISnTQ",
    "name": "Ale's Barbers shop",
    "address": "Porfirio Díaz y Manuel Acuña, Occidental, 25640 Frontera, Coah., Mexico",
    "coords": {
      "lat": 26.9267177,
      "lng": -101.4588744
    },
    "rating": null
  },
  {
    "id": "ChIJBT4J7HvHA4cRwR56AooD0Ns",
    "name": "Alejandro BESA, The Barber Parlor",
    "address": "608 S 25 Mile Ave, Hereford, TX 79045, United States",
    "coords": {
      "lat": 34.8178861,
      "lng": -102.4054188
    },
    "rating": null
  },
  {
    "id": "ChIJl1xpwGfpYoYR1misz5276wE",
    "name": "Aleman Barber Shop",
    "address": "66646, Av. Mision de Huinala 200, Misión de Huinala, 66646 Cdad. Apodaca, N.L., Mexico",
    "coords": {
      "lat": 25.7545212,
      "lng": -100.160392
    },
    "rating": 4.8
  },
  {
    "id": "ChIJ_bGFHGxB6oYRHmTDk2n0Z6s",
    "name": "Alex Barber barbería y peluquería",
    "address": "Miguel Sigala 1212, 20 Aniversario, 31137 Chihuahua, Chih., Mexico",
    "coords": {
      "lat": 28.7274844,
      "lng": -106.1439466
    },
    "rating": 4.9
  },
  {
    "id": "ChIJIf-4DWyP7oYR3zOAtjrCIkU",
    "name": "Alex barber shop",
    "address": "I. manuel altamirano entre Calle Tercera y, Libre Comercio, 32881 Manuel Ojinaga, Chih., Mexico",
    "coords": {
      "lat": 29.5547223,
      "lng": -104.4142177
    },
    "rating": 4.9
  },
  {
    "id": "ChIJZ_apwwHOi4YREuwS9jOfzv8",
    "name": "Alex Barber Studio",
    "address": "Gral Domingo Arrieta, Miravalle ÌII, 25750 Monclova, Coah., Mexico",
    "coords": {
      "lat": 26.8961626,
      "lng": -101.4379813
    },
    "rating": 5
  },
  {
    "id": "ChIJAZ3IkHohYYYRgY8BN68Wyek",
    "name": "Alex barber tdk barbershop",
    "address": "5300 San Dario Ave, Laredo, TX 78041, United States",
    "coords": {
      "lat": 27.5520619,
      "lng": -99.50009229999999
    },
    "rating": 5
  },
  {
    "id": "ChIJ9w3EEy_bioYRJkBDAJnHPXI",
    "name": "Alex’s Barber Shop",
    "address": "Samaniego 802, Comercial, 26800 Nueva Rosita, Coah., Mexico",
    "coords": {
      "lat": 27.9329861,
      "lng": -101.226948
    },
    "rating": null
  },
  {
    "id": "ChIJ887nLD2hZYYRrWK4f9Ux_YU",
    "name": "Alexander's Barber shop - Cleansing, Beard Grooming, Barber Service",
    "address": "915 E Ferguson Ave suite 6A, Pharr, TX 78577, United States",
    "coords": {
      "lat": 26.2107612,
      "lng": -98.1710681
    },
    "rating": 4.6
  },
  {
    "id": "ChIJc97ySthkF4cRUW44Owiq1M4",
    "name": "Alexs Hair & Nail Connection",
    "address": "711 Paseo Del Pueblo Sur, Taos, NM 87571, United States",
    "coords": {
      "lat": 36.3921014,
      "lng": -105.5810725
    },
    "rating": 4.7
  },
  {
    "id": "ChIJkZ_YZzaiZYYRojr1on-nq7A",
    "name": "Alfa & Omega Barber Shop",
    "address": "808 W University Dr, Edinburg, TX 78539, United States",
    "coords": {
      "lat": 26.3023161,
      "lng": -98.1708342
    },
    "rating": 4
  },
  {
    "id": "ChIJvYbKNCCfZYYRXH8jj58QSTo",
    "name": "Alfa & Omega Barber Shop #2",
    "address": "6257 TX-107, Edinburg, TX 78542, United States",
    "coords": {
      "lat": 26.29281,
      "lng": -98.0973154
    },
    "rating": 4.5
  },
  {
    "id": "ChIJwbmRh_sZYYYRBQUb5kw6zLw",
    "name": "Alfilechi Barber Shop",
    "address": "Ecatepec 604, Fraccionamiento Los Fresnos, 88290 Nuevo Laredo, Tamps., Mexico",
    "coords": {
      "lat": 27.4475215,
      "lng": -99.5528061
    },
    "rating": 5
  },
  {
    "id": "ChIJA_o-_CAPsocRBQlgPxws_Jc",
    "name": "Alfred Barbershop",
    "address": "5906 NW 16th St, Oklahoma City, OK 73127, United States",
    "coords": {
      "lat": 35.485954,
      "lng": -97.6199346
    },
    "rating": 4.9
  },
  {
    "id": "ChIJOQkXheAfTIYROvXDSeB_08g",
    "name": "Ali & Eyad Barbershop - صالون حلاقة عربي",
    "address": "850 S Greenville Ave #101, Richardson, TX 75081, United States",
    "coords": {
      "lat": 32.939268,
      "lng": -96.7340586
    },
    "rating": 4.8
  },
  {
    "id": "ChIJB5qJeDEFZYYRe61XxLPsdWQ",
    "name": "Aliados Barber Shop",
    "address": "Calle 17 & Elías Piña, Aztlán, 88740 Reynosa, Tamps., Mexico",
    "coords": {
      "lat": 26.0631326,
      "lng": -98.3153943
    },
    "rating": 4.2
  },
  {
    "id": "ChIJUd4kr1zlQIYRtKTDeiiBang",
    "name": "Alibaba Barber",
    "address": "4821 LJ Pkwy, Sugar Land, TX 77479, United States",
    "coords": {
      "lat": 29.5526615,
      "lng": -95.5873704
    },
    "rating": 4.8
  },
  {
    "id": "ChIJVV8sosDvQIYROs2Yy3UmH_0",
    "name": "Alibaba Barber",
    "address": "9303 Hwy 6, Missouri City, TX 77459, United States",
    "coords": {
      "lat": 29.5382082,
      "lng": -95.529274
    },
    "rating": 5
  },
  {
    "id": "ChIJTSlr-V3nQIYR11yxnDHot_A",
    "name": "Alibaba Barber",
    "address": "3526 Hwy 6, Sugar Land, TX 77479, United States",
    "coords": {
      "lat": 29.5888016,
      "lng": -95.5983645
    },
    "rating": 4.9
  },
  {
    "id": "ChIJP5SP0E_hQIYRGgxILmpkSA8",
    "name": "Alibaba Barber",
    "address": "11920 S Texas 6 #450, Sugar Land, TX 77498, United States",
    "coords": {
      "lat": 29.6438026,
      "lng": -95.6532185
    },
    "rating": 4.5
  },
  {
    "id": "ChIJccgJ3WO5QYYRCPpVvU1EamU",
    "name": "Alicia's Barber Shop",
    "address": "1705 Avenue F, Bay City, TX 77414, United States",
    "coords": {
      "lat": 28.9869196,
      "lng": -95.96998839999999
    },
    "rating": 4.6
  },
  {
    "id": "ChIJ6SUNSuoerYcRXAAAc5AFHBU",
    "name": "Alicia's Barber Shop",
    "address": "2005 NW Floyd Ave, Lawton, OK 73507, United States",
    "coords": {
      "lat": 34.6335552,
      "lng": -98.4209037
    },
    "rating": 3
  },
  {
    "id": "ChIJr6BlrA9R4IYRAraQfSo2pu0",
    "name": "Alisa the Hairstylist",
    "address": "1031 Mechem Dr Suite #4, Chair B, Ruidoso, NM 88345, United States",
    "coords": {
      "lat": 33.3545684,
      "lng": -105.6699371
    },
    "rating": 4.9
  },
  {
    "id": "ChIJ1_cFrkVfXIYRU6kXub3vx2c",
    "name": "All American Barbershop LLC",
    "address": "525 San Pedro Ave, San Antonio, TX 78212, United States",
    "coords": {
      "lat": 29.4385394,
      "lng": -98.4982038
    },
    "rating": 4.6
  },
  {
    "id": "ChIJD-fmTXtYSoYRqupHabZTgM0",
    "name": "All Cuts",
    "address": "155 N Collegiate Dr, Paris, TX 75460, United States",
    "coords": {
      "lat": 33.6624099,
      "lng": -95.5260022
    },
    "rating": 4.1
  },
  {
    "id": "ChIJFSNuq8aRtocRIeimE2Z7-q8",
    "name": "All Good Barbershop",
    "address": "116 E Main St, Jenks, OK 74037, United States",
    "coords": {
      "lat": 36.0224057,
      "lng": -95.9687991
    },
    "rating": 4.8
  },
  {
    "id": "ChIJRcOxLUCjToYR89VG25fb21I",
    "name": "All In One Barber Shop",
    "address": "1734 Buckner Blvd # 300, Dallas, TX 75217, United States",
    "coords": {
      "lat": 32.7427156,
      "lng": -96.682283
    },
    "rating": 3.6
  },
  {
    "id": "ChIJlU_j2QytToYRLRaQvjOxR8U",
    "name": "All Inclusive By Jay Henderson LLC",
    "address": "700 W Broad St STE 13, Forney, TX 75126, United States",
    "coords": {
      "lat": 32.7591901,
      "lng": -96.47797039999999
    },
    "rating": 5
  },
  {
    "id": "ChIJaVvZeTwnU4YRVJ3qdjmar-M",
    "name": "All Kutz & More",
    "address": "4108 Burkburnett Rd # C, Wichita Falls, TX 76306, United States",
    "coords": {
      "lat": 33.9644779,
      "lng": -98.5142049
    },
    "rating": 4.3
  },
  {
    "id": "ChIJRSRqt-60tIcRAj98hJXbi2E",
    "name": "All Prissy'd Up Salon",
    "address": "162 S Ohio Ave, Atoka, OK 74525, United States",
    "coords": {
      "lat": 34.3837057,
      "lng": -96.1250343
    },
    "rating": 4.6
  },
  {
    "id": "ChIJFREgYTJzIocRCajvRyXt9V0",
    "name": "All Slick Barbershop",
    "address": "1751 Bellamah Ave NW ste. 1117, Albuquerque, NM 87104, United States",
    "coords": {
      "lat": 35.1017108,
      "lng": -106.6634801
    },
    "rating": 4.9
  },
  {
    "id": "ChIJ05ezHwBVVoYRqlDkQqnv3W8",
    "name": "All Star Barbershop",
    "address": "5213 US-83 Suite 2, Escobares, TX 78, United States",
    "coords": {
      "lat": 26.4077657,
      "lng": -98.97672779999999
    },
    "rating": null
  },
  {
    "id": "ChIJHYr7knKFRoYRkzMWWEzls5o",
    "name": "All Star Fadez",
    "address": "900 Harvey Rd, College Station, TX 77840, United States",
    "coords": {
      "lat": 30.6226308,
      "lng": -96.309524
    },
    "rating": 4.5
  },
  {
    "id": "ChIJgw_6OxV9ToYRxKiVOz0G7_U",
    "name": "All Stars Barbershop",
    "address": "2238 N Collins St, Arlington, TX 76011, United States",
    "coords": {
      "lat": 32.7710885,
      "lng": -97.0976554
    },
    "rating": 4.6
  },
  {
    "id": "ChIJO9y-3EDlV4YRIcX1zAjCpKg",
    "name": "All Starz",
    "address": "117 S A and M Ave, San Angelo, TX 76901, United States",
    "coords": {
      "lat": 31.444674,
      "lng": -100.4748079
    },
    "rating": 4.2
  },
  {
    "id": "ChIJb_BPq8AXOIYR1WtJoVik_SQ",
    "name": "All-StarBarbershop",
    "address": "508 E Denman Ave # A, Lufkin, TX 75901, United States",
    "coords": {
      "lat": 31.3294116,
      "lng": -94.72140809999999
    },
    "rating": 5
  },
  {
    "id": "ChIJl4KrN0RK2E4RS4NY79OCVN0",
    "name": "All's Well Barbershop",
    "address": "5361 Williams Dr Ste 118, Georgetown, TX 78633, United States",
    "coords": {
      "lat": 30.7024869,
      "lng": -97.7416097
    },
    "rating": 4.8
  },
  {
    "id": "ChIJjawjJD89OIYRekEeDeEjDLc",
    "name": "All*Pros Barbershop",
    "address": "402 E Denman Ave, Lufkin, TX 75901, United States",
    "coords": {
      "lat": 31.3311128,
      "lng": -94.7246906
    },
    "rating": 5
  },
  {
    "id": "ChIJr2MLnwe-b4YRla2HaVt3NoI",
    "name": "Alliance Cutz",
    "address": "5850 Ruben M Torres Blvd, Brownsville, TX 78526, United States",
    "coords": {
      "lat": 25.9440915,
      "lng": -97.42977259999999
    },
    "rating": 4.5
  },
  {
    "id": "ChIJnZJdzPvKPoYRZVTsFrtGmCM",
    "name": "Allstar Cuts",
    "address": "1801 Washington Blvd, Beaumont, TX 77705, United States",
    "coords": {
      "lat": 30.0558764,
      "lng": -94.10303259999999
    },
    "rating": 4.5
  },
  {
    "id": "ChIJdVqc6htnQoYRCrJDGDN9EHA",
    "name": "Allstar Fade",
    "address": "1315 Sam Houston Dr, Victoria, TX 77901, United States",
    "coords": {
      "lat": 28.8264737,
      "lng": -96.9793163
    },
    "rating": 4.5
  },
  {
    "id": "ChIJcxiJEGeoXIYR1jdVdqSxLys",
    "name": "AllStars Barbershop",
    "address": "135 S L B J Dr, San Marcos, TX 78666, United States",
    "coords": {
      "lat": 29.8815366,
      "lng": -97.9395694
    },
    "rating": 4.3
  },
  {
    "id": "ChIJodUlHvK_YoYRyGKrk4W2obs",
    "name": "Alpha Barberias Revolución",
    "address": "Av. Revolución 550-Local 9, Buenos Aires, 64800 Monterrey, N.L., Mexico",
    "coords": {
      "lat": 25.6649741,
      "lng": -100.2848204
    },
    "rating": 4.9
  },
  {
    "id": "ChIJoSki5jzHYoYRcGiI5JSozAk",
    "name": "Alpha Barberias Rioja",
    "address": "Av. la Rioja 5000, Villas La Rioja, 64162 Monterrey, N.L., Mexico",
    "coords": {
      "lat": 25.5791733,
      "lng": -100.2489609
    },
    "rating": 4.9
  },
  {
    "id": "ChIJyciPXJUT64YRgMyRYU0KQlY",
    "name": "Alta Finta Barber & Tatoo",
    "address": "C. Pedro Meoqui 114, Centro, 33130 Pedro Meoqui, Chih., Mexico",
    "coords": {
      "lat": 28.2674072,
      "lng": -105.4798758
    },
    "rating": 5
  },
  {
    "id": "ChIJIVPk9UyDb4YRKcEO4YjwXog",
    "name": "Alto Estilo Barbershop",
    "address": "1921 E Tyler Ave, Harlingen, TX 78550, United States",
    "coords": {
      "lat": 26.1900561,
      "lng": -97.6750318
    },
    "rating": 5
  },
  {
    "id": "ChIJGSfD6hplq4cRzJ69iRkptf0",
    "name": "Altus Plaza Shopping Center & Indoor Mall",
    "address": "1116 N Main St, Altus, OK 73521, United States",
    "coords": {
      "lat": 34.6493584,
      "lng": -99.33291190000001
    },
    "rating": 4
  },
  {
    "id": "ChIJHSWVRmJJj4YRUnpPVd3Xlw0",
    "name": "Alvarado barbershop",
    "address": "27980, Zona Centro, 27980 Parras de la Fuente, Coah., Mexico",
    "coords": {
      "lat": 25.4401067,
      "lng": -102.1842858
    },
    "rating": null
  },
  {
    "id": "ChIJz75uWABJSYYRWUroxMoWxNI",
    "name": "Alvarado’s Beauty salón & barber",
    "address": "1400 S Washington St, Kaufman, TX 75142, United States",
    "coords": {
      "lat": 32.5801245,
      "lng": -96.30949079999999
    },
    "rating": 5
  },
  {
    "id": "ChIJG27fZlKZOYYRit3iH1cheeA",
    "name": "Always Beautiful Hair Salon",
    "address": "711 E Gibson St, Jasper, TX 75951, United States",
    "coords": {
      "lat": 30.9134736,
      "lng": -93.989377
    },
    "rating": 4.7
  },
  {
    "id": "ChIJtYjiwoNDXIYRy_snZMU6GOY",
    "name": "Always Faded Barber Shop",
    "address": "9819 Marbach Rd STE. 104, San Antonio, TX 78245, United States",
    "coords": {
      "lat": 29.4183739,
      "lng": -98.6821926
    },
    "rating": 4.8
  },
  {
    "id": "ChIJlXWVyUJrs4cRdFcB-b9zdYQ",
    "name": "Amanda's Barber Shop",
    "address": "Ada, OK 74820, United States",
    "coords": {
      "lat": 34.7511062,
      "lng": -96.7006988
    },
    "rating": 4.3
  },
  {
    "id": "ChIJq6p2s1YVUYYRj3QnWpszcXk",
    "name": "Amanda's Family Cuts",
    "address": "1200 W Main St #2436, Eastland, TX 76448, United States",
    "coords": {
      "lat": 32.4015916,
      "lng": -98.8308831
    },
    "rating": 4.2
  },
  {
    "id": "ChIJd2SnxwlPAYcRG9F0a7nlAzM",
    "name": "Amarillo’s barbershop",
    "address": "4521 S Western St, Amarillo, TX 79109, United States",
    "coords": {
      "lat": 35.1630891,
      "lng": -101.8835137
    },
    "rating": null
  },
  {
    "id": "ChIJLyff2O9bAYcRhvgAu1iJVRc",
    "name": "Amarillo’s Major League Barbershop, LLC",
    "address": "6107 Coulter St S, Amarillo, TX 79119, United States",
    "coords": {
      "lat": 35.1451107,
      "lng": -101.9195341
    },
    "rating": 4.2
  },
  {
    "id": "ChIJgwgc22VJ_4YREYiRjOsCTVk",
    "name": "Amazing Cuts",
    "address": "4109 College Ave # B, Snyder, TX 79549, United States",
    "coords": {
      "lat": 32.7007291,
      "lng": -100.9199563
    },
    "rating": 4.3
  },
  {
    "id": "ChIJ5cOpNBgBaIYRHptbz9ubO-Q",
    "name": "AMAZING KUTZ",
    "address": "2400 N Saint Marys Street, Beeville, TX 78102, United States",
    "coords": {
      "lat": 28.4225301,
      "lng": -97.75667759999999
    },
    "rating": 4.6
  },
  {
    "id": "ChIJV8gOEEL5-oYRFKOyMZN2XfU",
    "name": "Ambitious barber studio",
    "address": "108 E Sealy Ave, Monahans, TX 79756, United States",
    "coords": {
      "lat": 31.5944552,
      "lng": -102.8925144
    },
    "rating": 4.6
  },
  {
    "id": "ChIJj0ayc5QPrYcRxZqpsorJIr4",
    "name": "Ambrose Style Shop",
    "address": "8133 OK-17, Elgin, OK 73538, United States",
    "coords": {
      "lat": 34.7823264,
      "lng": -98.29198319999999
    },
    "rating": 4.9
  },
  {
    "id": "ChIJGam0V9tb6oYRnKrqlvUvNZA",
    "name": "American Barber",
    "address": "16 de Septiembre 1310, Villa Juárez, 31064 Chihuahua, Chih., Mexico",
    "coords": {
      "lat": 28.6031027,
      "lng": -106.0110249
    },
    "rating": 4.7
  },
  {
    "id": "ChIJcy0Ft_3TMoYRTJBw9ZutSm8",
    "name": "American Barber",
    "address": "3655 Malvern Rd Suite C, Hot Springs, AR 71901, United States",
    "coords": {
      "lat": 34.46451940000001,
      "lng": -92.9712776
    },
    "rating": 4.9
  },
  {
    "id": "ChIJ3TxZfY7LIYcR81PADXLAb0k",
    "name": "American Barber Shop",
    "address": "216 S California St, Socorro, NM 87801, United States",
    "coords": {
      "lat": 34.0559549,
      "lng": -106.8912687
    },
    "rating": 5
  },
  {
    "id": "ChIJ914_md1d6oYRAUko1l4ndBw",
    "name": "American Barber Suc. Col. Dale",
    "address": "Calle Mariano Samaniego 3801, Dale, RUTA SUR II, 31050 Chihuahua, Chih., Mexico",
    "coords": {
      "lat": 28.6159741,
      "lng": -106.0702114
    },
    "rating": 4.8
  },
  {
    "id": "ChIJBz_vkXXa74YRTOIsb6M_ajg",
    "name": "Americana An Aveda Concept Salon",
    "address": "210 W Ave E, Alpine, TX 79830, United States",
    "coords": {
      "lat": 30.3578529,
      "lng": -103.6634557
    },
    "rating": 4.8
  },
  {
    "id": "ChIJXQOM1AshlYYR6pYhqLpkels",
    "name": "Amero Barber shop",
    "address": "33650 Chihuahua, Mexico",
    "coords": {
      "lat": 27.4461783,
      "lng": -105.8130143
    },
    "rating": null
  },
  {
    "id": "ChIJJx0Jj7v1sIcR9U0sxUNkJsg",
    "name": "Amy Rae @AfterShave",
    "address": "413 N 14th St, Ponca City, OK 74601, United States",
    "coords": {
      "lat": 36.7071141,
      "lng": -97.0665246
    },
    "rating": 5
  },
  {
    "id": "ChIJoRC5XfCPOIYRGeS_Ln_PthU",
    "name": "Amy's Barbershop",
    "address": "162 Culbertson Lp, Livingston, TX 77351, United States",
    "coords": {
      "lat": 30.6411305,
      "lng": -94.8719502
    },
    "rating": 5
  },
  {
    "id": "ChIJjWy854otT4YREuNOn7JvAgw",
    "name": "Amy’s Hair Solon",
    "address": "302 S 20th St, Corsicana, TX 75110, United States",
    "coords": {
      "lat": 32.0859032,
      "lng": -96.47394709999999
    },
    "rating": 5
  },
  {
    "id": "ChIJ6x-JWhCJQIYRGYRTYxTJ86o",
    "name": "Anderson barber shop",
    "address": "406 Verhalen Rd, Alvin, TX 77511, United States",
    "coords": {
      "lat": 29.3830997,
      "lng": -95.23262609999999
    },
    "rating": 5
  },
  {
    "id": "ChIJ02tsHwyRrIcRmp6CwvYyXZs",
    "name": "Anderson Barber Shop",
    "address": "705 E St, Snyder, OK 73566, United States",
    "coords": {
      "lat": 34.6585509,
      "lng": -98.9520446
    },
    "rating": 4
  },
  {
    "id": "ChIJbdubpghbaIYRCB9kXlQ7ERE",
    "name": "Andi's Barber Shop",
    "address": "715 Houston St, Portland, TX 78374, United States",
    "coords": {
      "lat": 27.8758507,
      "lng": -97.3241723
    },
    "rating": 5
  },
  {
    "id": "ChIJR89ZLzfaj4YRdblyeIAb-Rc",
    "name": "ANDRE BARBER SHOP",
    "address": "Blvrd Constitución 1720a, San Isidro, 27100 Torreón, Coah., Mexico",
    "coords": {
      "lat": 25.5683949,
      "lng": -103.4331332
    },
    "rating": 4.7
  },
  {
    "id": "ChIJ653fl-bkQoYRPrTPo5LVJwk",
    "name": "Andres Custom Cuts",
    "address": "201 E Morgan Ave, Cuero, TX 77954, United States",
    "coords": {
      "lat": 29.0875598,
      "lng": -97.29149629999999
    },
    "rating": 5
  },
  {
    "id": "ChIJhXY1DgAnYYYRKgOVu2rZFl4",
    "name": "ANDRES the Barber",
    "address": "7124 Bob Bullock Lp #103, Laredo, TX 78041, United States",
    "coords": {
      "lat": 27.5602179,
      "lng": -99.4449779
    },
    "rating": null
  },
  {
    "id": "ChIJ6-EUZcrZNYYR8hvPbDXV1N4",
    "name": "Andy's Barbershop",
    "address": "502 TX-49, Hughes Springs, TX 75656, United States",
    "coords": {
      "lat": 32.9996513,
      "lng": -94.63718569999999
    },
    "rating": 4.9
  },
  {
    "id": "ChIJr421Pvm3PoYReh73imZfp68",
    "name": "Andy’s hair salon",
    "address": "3123 suite B Nederland Ave, Nederland, TX 77627, United States",
    "coords": {
      "lat": 29.960295,
      "lng": -94.0021641
    },
    "rating": 4.3
  },
  {
    "id": "ChIJ8xSlLorLwYYR0QDIfO2VX_0",
    "name": "Angel Barber",
    "address": "Av. Mariano Jiménez entre 41 y 43, Francisco Villa, 31600 Cuauhtémoc, Chih., Mexico",
    "coords": {
      "lat": 28.4183464,
      "lng": -106.8478091
    },
    "rating": 4.5
  },
  {
    "id": "ChIJYwhZPABP9YYRkhmupk2HVdA",
    "name": "Angel Barbershop",
    "address": "Morelos 404, Zona Centro, 26500 Morelos, Coah., Mexico",
    "coords": {
      "lat": 28.4099127,
      "lng": -100.8884922
    },
    "rating": null
  },
  {
    "id": "ChIJH7WNBgt9P4YRiziwRMtxudQ",
    "name": "Angel's Barber Shop & Beauty inc.",
    "address": "433 Grand Ave #102, Bacliff, TX 77518, United States",
    "coords": {
      "lat": 29.5067816,
      "lng": -94.9828088
    },
    "rating": 4.3
  },
  {
    "id": "ChIJ5RMcB9tPWoYR1nrY-4tZcJM",
    "name": "Angela's Hair Care & More",
    "address": "504 E Dallas St, Llano, TX 78643, United States",
    "coords": {
      "lat": 30.7583145,
      "lng": -98.66844619999999
    },
    "rating": 4.9
  },
  {
    "id": "ChIJt0GbfQDrYoYRzhkmUO7KxIs",
    "name": "Angeles Barber Shop",
    "address": "Sta. Elena 1258, Fresnos del Lago 1er Sector, 66478 Monterrey, N.L., Mexico",
    "coords": {
      "lat": 25.7357913,
      "lng": -100.217774
    },
    "rating": 5
  },
  {
    "id": "ChIJe8xpt0jlV4YRXNTIuBMyG3s",
    "name": "Angelo Cuts",
    "address": "3367 Knickerbocker Rd, San Angelo, TX 76904, United States",
    "coords": {
      "lat": 31.4207377,
      "lng": -100.4674454
    },
    "rating": 4.7
  },
  {
    "id": "ChIJIVRU7KtdQIYR9fLNT2Dvopk",
    "name": "Angleton Barber Shop",
    "address": "105 E Wilkins St # A, Angleton, TX 77515, United States",
    "coords": {
      "lat": 29.1735653,
      "lng": -95.43173639999999
    },
    "rating": 4.8
  },
  {
    "id": "ChIJV7t5DN0TsocRH2OkPVxISzM",
    "name": "Anglin's Barber Shop and Salon",
    "address": "5735 S Pennsylvania Ave, Oklahoma City, OK 73119, United States",
    "coords": {
      "lat": 35.4084055,
      "lng": -97.5484044
    },
    "rating": 4.9
  },
  {
    "id": "ChIJmQUVx-XBW4YROdqWPtT34Oc",
    "name": "Anguiano Legacy Cuts",
    "address": "812 Llano St Ste C, Fredericksburg, TX 78624, United States",
    "coords": {
      "lat": 30.2812411,
      "lng": -98.86408259999999
    },
    "rating": 4.9
  },
  {
    "id": "ChIJV-CevBXeAocRmTf7N-V9FBc",
    "name": "Ann Harper Salon",
    "address": "2-70 Connie Ln, Clovis, NM 88101, United States",
    "coords": {
      "lat": 34.4290923,
      "lng": -103.1933581
    },
    "rating": 5
  },
  {
    "id": "ChIJuwNKz5Rv4oYRK6r8kVUpPVE",
    "name": "Ann Hunter Designs",
    "address": "106 E Linda Vista Blvd, Roswell, NM 88201, United States",
    "coords": {
      "lat": 33.4360416,
      "lng": -104.5225086
    },
    "rating": 5
  },
  {
    "id": "ChIJnScKdG1m_IYRdvV3GQn16oM",
    "name": "Anna's Beauty Shop",
    "address": "207 SW Ave B, Seminole, TX 79360, United States",
    "coords": {
      "lat": 32.717761,
      "lng": -102.6471862
    },
    "rating": 4.8
  },
  {
    "id": "ChIJ67pSXmAfsocR8dFsEwlibhg",
    "name": "Annex Barbershop",
    "address": "204 E 2nd St, Edmond, OK 73034, United States",
    "coords": {
      "lat": 35.6525711,
      "lng": -97.4778669
    },
    "rating": 4.8
  },
  {
    "id": "ChIJZS2abqXZ-4YRHtfNo5CkTmY",
    "name": "AnnGee's Barber Academy",
    "address": "4200 W Illinois Ave #140, Midland, TX 79703, United States",
    "coords": {
      "lat": 31.9890579,
      "lng": -102.1303275
    },
    "rating": 4.8
  },
  {
    "id": "ChIJT2xstY6ZRIYRw-YAv67J1kY",
    "name": "Anointed Hands",
    "address": "201 Hunters Crossing Blvd, Bastrop, TX 78602, United States",
    "coords": {
      "lat": 30.1074695,
      "lng": -97.3571853
    },
    "rating": 4.7
  },
  {
    "id": "ChIJEZEHQR4JAocRA8R8vKCQJtY",
    "name": "Anointed Kutz",
    "address": "326 Phelps Ave, Littlefield, TX 79339, United States",
    "coords": {
      "lat": 33.9229278,
      "lng": -102.3301086
    },
    "rating": 4.8
  },
  {
    "id": "ChIJMQckQiBNRYYRaqIyUtaY5Eo",
    "name": "Anotha LEVEL Barbershop",
    "address": "3608 Bacon Ranch Rd, Killeen, TX 76542, United States",
    "coords": {
      "lat": 31.0809938,
      "lng": -97.7059665
    },
    "rating": 4.7
  },
  {
    "id": "ChIJPYgUwMpfS4YR6e0Gp8mgH-4",
    "name": "Another Salon & Barbershop",
    "address": "322 Katy St, Durant, OK 74701, United States",
    "coords": {
      "lat": 33.9929728,
      "lng": -96.37406349999999
    },
    "rating": 5
  },
  {
    "id": "ChIJAQBcNmiSVoYRNxZXBF8qcpA",
    "name": "Ant the Barber",
    "address": "1115 N Mockingbird Ln, Abilene, TX 79603, United States",
    "coords": {
      "lat": 32.4622892,
      "lng": -99.75759509999999
    },
    "rating": 5
  },
  {
    "id": "ChIJ65rCJnYb_oYRhwrQ3aKxq2A",
    "name": "Antelope Barber Shop and Salon",
    "address": "420 9th St, Abernathy, TX 79311, United States",
    "coords": {
      "lat": 33.8325001,
      "lng": -101.8438316
    },
    "rating": 5
  },
  {
    "id": "ChIJ6wcmi4hvIocRgSbNTaeEhoY",
    "name": "AntFadez",
    "address": "10081 Calle Chulita NW, Albuquerque, NM 87114, United States",
    "coords": {
      "lat": 35.1972726,
      "lng": -106.7248269
    },
    "rating": null
  },
  {
    "id": "ChIJg6GggiXLIYcR3V7KQwlZPMY",
    "name": "Anthony Lopez @ That Barber Shop",
    "address": "102 Baca, Socorro, NM 87801, United States",
    "coords": {
      "lat": 34.0593609,
      "lng": -106.8912359
    },
    "rating": 5
  },
  {
    "id": "ChIJ1Qafbzw93oYRC06K8GjXlYk",
    "name": "Antoine the Barber",
    "address": "506 S Main St Suite 204, Las Cruces, NM 88001, United States",
    "coords": {
      "lat": 32.3051429,
      "lng": -106.7786299
    },
    "rating": 5
  },
  {
    "id": "ChIJVckLdyaNX4YRduqu733u-Bo",
    "name": "Antonio's barber shop",
    "address": "Siglo XX 606, Bravo, 26030 Piedras Negras, Coah., Mexico",
    "coords": {
      "lat": 28.6897774,
      "lng": -100.5212354
    },
    "rating": 5
  },
  {
    "id": "ChIJa9rJ31u8YYYRhLrUGIQWuxQ",
    "name": "Antonio's Barber Shop",
    "address": "Hidalgo 115, Centro de Anahuac, 65030 Anáhuac, N.L., Mexico",
    "coords": {
      "lat": 27.2422516,
      "lng": -100.1343064
    },
    "rating": 4.8
  },
  {
    "id": "ChIJzeN5vp2LX4YRpC9PLoNsFKM",
    "name": "Antonio's barber shop pn",
    "address": "Calle Av. Juan Pablo II 2008, Acoros Sector II, 26080 Piedras Negras, Coah., Mexico",
    "coords": {
      "lat": 28.6844523,
      "lng": -100.5824975
    },
    "rating": 4.9
  },
  {
    "id": "ChIJcxo81FZt_oYR-IS-coJJFqk",
    "name": "Antonio's House of Fades by Crystal",
    "address": "1903 19th St, Lubbock, TX 79401, United States",
    "coords": {
      "lat": 33.5775525,
      "lng": -101.8578014
    },
    "rating": 4.9
  },
  {
    "id": "ChIJ3wVXtlrYj4YR8r-mMEjUVAo",
    "name": "Antuan Barber Shop",
    "address": "C. Héroe de Nacozari 1303, Bellavista, 35058 Gómez Palacio, Dgo., Mexico",
    "coords": {
      "lat": 25.5631959,
      "lng": -103.5103673
    },
    "rating": 4
  },
  {
    "id": "ChIJObQndaLNi4YRz82Xskv-ZYI",
    "name": "Antwan's Barbershop",
    "address": "Blvrd San Jose & Calle 18, Emiliano Zapata, 25740 Monclova, Coah., Mexico",
    "coords": {
      "lat": 26.9221184,
      "lng": -101.3955491
    },
    "rating": 4.8
  },
  {
    "id": "ChIJjZE27zQzMYYRCNT-_bZ2xRA",
    "name": "Anytime cutz",
    "address": "1131 Airline Dr, Bossier City, LA 71112, United States",
    "coords": {
      "lat": 32.5058928,
      "lng": -93.6977867
    },
    "rating": 5
  },
  {
    "id": "ChIJXRGeMHqVb4YR3KIW3zKQydc",
    "name": "Apex Barbershop",
    "address": "2675 E Price Rd A2, Brownsville, TX 78521, United States",
    "coords": {
      "lat": 25.9343885,
      "lng": -97.4792935
    },
    "rating": 3.6
  },
  {
    "id": "ChIJd6cI6js_TIYRfvt1UHIqPlg",
    "name": "Apex Men's Grooming",
    "address": "1800 N Travis St suite f, Sherman, TX 75092, United States",
    "coords": {
      "lat": 33.6540992,
      "lng": -96.61517669999999
    },
    "rating": 5
  },
  {
    "id": "ChIJIQmnJ7gV64YRzrlprhKZRiM",
    "name": "Apolo Barber Shop",
    "address": "C. 7a poniente y Priv. de 704, Av. 9a. Pte. Local B, Poniente, 33000 Delicias, Chih., Mexico",
    "coords": {
      "lat": 28.1915113,
      "lng": -105.4835268
    },
    "rating": 4.6
  },
  {
    "id": "ChIJq4gl3yJBQIYRqa4doXqYZaE",
    "name": "AR.bl3ndz Barber Studio",
    "address": "1227 State Hwy 288, Clute, TX 77531, United States",
    "coords": {
      "lat": 29.0104582,
      "lng": -95.4146621
    },
    "rating": 5
  },
  {
    "id": "ChIJmdCf8EdryYcRzFpfCROJp-U",
    "name": "Aracely's Beauty Salon, Barber Shop & Tatuado Permanente",
    "address": "519 Holcomb St, Springdale, AR 72764, United States",
    "coords": {
      "lat": 36.1805607,
      "lng": -94.13116749999999
    },
    "rating": 4.4
  },
  {
    "id": "ChIJO_xoewA_YoYRufNwIrgEPJo",
    "name": "Arana barber",
    "address": "Luis T. Mireles 171, Santa Cruz, 65234 Sabinas Hidalgo, N.L., Mexico",
    "coords": {
      "lat": 26.502901,
      "lng": -100.2069347
    },
    "rating": 5
  },
  {
    "id": "ChIJ1brrKDUZYYYRm0uLY9hx_Ek",
    "name": "Araujo Barber Shop",
    "address": "Coatzacoalcos 802, Fraccionamiento Los Ciruelos, 88290 Nuevo Laredo, Tamps., Mexico",
    "coords": {
      "lat": 27.4434326,
      "lng": -99.55578369999999
    },
    "rating": 4.9
  },
  {
    "id": "ChIJRTzLS15qNIYR00u_syJ1zeI",
    "name": "ARCHIE'S BARBER",
    "address": "521 W 3rd St, Texarkana, TX 75501, United States",
    "coords": {
      "lat": 33.4204477,
      "lng": -94.04766490000002
    },
    "rating": null
  },
  {
    "id": "ChIJC8jTJhwLIocRD2DzYCNwNn8",
    "name": "Archuleta's Barber Shop",
    "address": "520 San Mateo Blvd NE, Albuquerque, NM 87108, United States",
    "coords": {
      "lat": 35.082539,
      "lng": -106.5859971
    },
    "rating": 4.9
  },
  {
    "id": "ChIJrTDCWqfLj4YR9wHZMkKpOtE",
    "name": "Área 51 Barber Shop",
    "address": "Av. Carranza 16, Centro, 27900 Francisco I. Madero, Coah., Mexico",
    "coords": {
      "lat": 25.7767255,
      "lng": -103.2682161
    },
    "rating": 5
  },
  {
    "id": "ChIJNYsfHvFdXIYRignzBRdJdKM",
    "name": "Areedo Barbershop",
    "address": "7271 Wurzbach Rd #117, San Antonio, TX 78240, United States",
    "coords": {
      "lat": 29.5038339,
      "lng": -98.5857346
    },
    "rating": 4.8
  },
  {
    "id": "ChIJpVIDadObQIYRiNn8nYha7I4",
    "name": "Argel's Barber Shop",
    "address": "15327 Gulf Fwy, Houston, TX 77034, United States",
    "coords": {
      "lat": 29.5885604,
      "lng": -95.1834015
    },
    "rating": 4.6
  },
  {
    "id": "ChIJg83T1FBvyYcR88ZkxARgtG0",
    "name": "Arkansas DRA mobile cutz",
    "address": "920 N Leverett Ave #602, Fayetteville, AR 72701, United States",
    "coords": {
      "lat": 36.0762657,
      "lng": -94.170571
    },
    "rating": null
  },
  {
    "id": "ChIJL4HRXWLpQIYR9mfAMrhX4Vk",
    "name": "Arleth New Style Barber Shop",
    "address": "10850 S Gessner Rd, Houston, TX 77071, United States",
    "coords": {
      "lat": 29.6617754,
      "lng": -95.5288734
    },
    "rating": 5
  },
  {
    "id": "ChIJrzSFGIsyXoYRbjYwGftA_68",
    "name": "ARMANDO'S BARBER SHOP",
    "address": "Carrizo Springs, TX 78834, United States",
    "coords": {
      "lat": 28.5223133,
      "lng": -99.86043670000001
    },
    "rating": null
  },
  {
    "id": "ChIJ994f7QxC6oYRS7vYyeTtZAQ",
    "name": "Arnold's Barbería",
    "address": "Calle cordillera Blanca y San Miguel El Grande 10110-1, Cordilleras, 31124 Chihuahua, Chih., Mexico",
    "coords": {
      "lat": 28.7057284,
      "lng": -106.1454062
    },
    "rating": 4.7
  },
  {
    "id": "ChIJefa88i9nQoYR-vONVVHp0wI",
    "name": "Arnold's Clipper",
    "address": "902 E Crestwood Dr, Victoria, TX 77901, United States",
    "coords": {
      "lat": 28.8284226,
      "lng": -96.99663819999999
    },
    "rating": 4.4
  },
  {
    "id": "ChIJCy3JRgDNi4YRCyLP47Nqo2Q",
    "name": "ARREAGA’S BARBERSHOP",
    "address": "Ciruelos, Del Río, 25748 Monclova, Coah., Mexico",
    "coords": {
      "lat": 26.9211889,
      "lng": -101.402832
    },
    "rating": null
  },
  {
    "id": "ChIJO4tZn8qLN4YRnm3rTTE0a6g",
    "name": "Arriola Barber Shop",
    "address": "111 Lake St, Nacogdoches, TX 75964, United States",
    "coords": {
      "lat": 31.5905342,
      "lng": -94.6649985
    },
    "rating": 5
  },
  {
    "id": "ChIJEWiua76TYoYRrw7xvGts7zc",
    "name": "Arsalan Barber shop",
    "address": "Claveles 601, Los Girasoles 1er Sector, 66056 Cdad. Gral. Escobedo, N.L., Mexico",
    "coords": {
      "lat": 25.7927553,
      "lng": -100.3229281
    },
    "rating": 4.2
  },
  {
    "id": "ChIJVaU5zEHTQIYRVDXwLHN6i3Y",
    "name": "Art & Style BarberShop",
    "address": "9337 Spring Cypress Rd suite d, Spring, TX 77379, United States",
    "coords": {
      "lat": 30.0258413,
      "lng": -95.5644753
    },
    "rating": 5
  },
  {
    "id": "ChIJd0JKgtOv44YRaNpOEH0iop0",
    "name": "Artesia Barber Shop",
    "address": "1209 W Grand Ave, Artesia, NM 88210, United States",
    "coords": {
      "lat": 32.8387809,
      "lng": -104.4122834
    },
    "rating": null
  },
  {
    "id": "ChIJYX3oi95uN4YRSozA1h-71Cw",
    "name": "Arthur's Barber Shop",
    "address": "626 Martin Luther King Dr, Center, TX 75935, United States",
    "coords": {
      "lat": 31.7851904,
      "lng": -94.1685959
    },
    "rating": 4.9
  },
  {
    "id": "ChIJpxLETlZtyYcR8tEW1K5gPUA",
    "name": "Artist Barber Shop",
    "address": "W Emma Ave, Springdale, AR 72762, United States",
    "coords": {
      "lat": 36.1863849,
      "lng": -94.1734153
    },
    "rating": null
  },
  {
    "id": "ChIJgY7AfjdxIocRqv4X9GFLbcY",
    "name": "Artist Barbershop",
    "address": "2345 Southern Blvd SE C 13, Rio Rancho, NM 87124, United States",
    "coords": {
      "lat": 35.2421367,
      "lng": -106.6879158
    },
    "rating": 4.7
  },